{"data": {"link": "https://www.tripadvisor.com/Hotels-g187870-oa120-Venice_Veneto-Hotels.html", "total_pages": 49, "current_page": 5, "total_items_count": 1467, "items_count": 30, "results": [{"id": 623860, "name": "Hotel Dei Dragomanni", "link": "https://www.tripadvisor.com/Hotel_Review-g187870-d623860-Reviews-Hotel_Dei_Dragomanni-Venice_Veneto.html", "reviews": 772, "rating": 4, "price_range_usd": {"min": 140, "max": 330}, "phone": "+39 041 277 1300", "address": "Calle Dose da Ponte 2711 Sestiere San Marco, 30124 Venice Italy", "detailed_address": {"street": "Calle Dose da Ponte 2711, Sestiere San Marco", "city": "Venice", "postal_code": "30124", "state": null, "country": "Italy"}, "ranking": {"current_rank": 153, "total": 366}, "featured_image": null, "latitude": 45.431873, "longitude": 12.331096, "amenities": ["Free Wifi", "Room service", "Bar/Lounge"], "providers": []}, {"id": 633854, "name": "Hotel Casa Petrarca", "link": "https://www.tripadvisor.com/Hotel_Review-g187870-d633854-Reviews-Hotel_Casa_Petrarca-Venice_Veneto.html", "reviews": 572, "rating": 4.5, "price_range_usd": {"min": 88, "max": 169}, "phone": "+39 041 520 0430", "address": "San Marco - 4386 Calle de le Schiavine, 30124 Venice Italy", "detailed_address": {"street": "San Marco - 4386 Calle de le Schiavine", "city": "Venice", "postal_code": "30124", "state": null, "country": "Italy"}, "ranking": {"current_rank": 92, "total": 366}, "featured_image": null, "latitude": 45.434727, "longitude": 12.335405, "amenities": ["Free Wifi", "Breakfast included"], "providers": []}, {"id": 625334, "name": "Hotel Becher", "link": "https://www.tripadvisor.com/Hotel_Review-g187870-d625334-Reviews-Hotel_Becher-Venice_Veneto.html", "reviews": 1143, "rating": 4.5, "price_range_usd": {"min": 152, "max": 332}, "phone": "+39 041 419 2658", "address": "San Marco 1857, 30124 Venice Italy", "detailed_address": {"street": "San Marco 1857", "city": "Venice", "postal_code": "30124", "state": null, "country": "Italy"}, "ranking": {"current_rank": 68, "total": 366}, "featured_image": null, "latitude": 45.434246, "longitude": 12.334703, "amenities": ["Free Wifi", "Breakfast included"], "providers": []}, {"id": 558796, "name": "Hotel Al Ponte Mocenigo", "link": "https://www.tripadvisor.com/Hotel_Review-g187870-d558796-Reviews-Hotel_Al_Ponte_Mocenigo-Venice_Veneto.html", "reviews": 3190, "rating": 5, "price_range_usd": {"min": 109, "max": 172}, "phone": "+39 041 524 4797", "address": "S. Croce 1985, 30135 Venice Italy", "detailed_address": {"street": "S. Croce 1985", "city": "Venice", "postal_code": "30135", "state": null, "country": "Italy"}, "ranking": {"current_rank": 24, "total": 366}, "featured_image": null, "latitude": 45.441044, "longitude": 12.33017, "amenities": ["Free Wifi", "Breakfast included"], "providers": []}, {"id": 229077, "name": "Amadeus Hotel", "link": "https://www.tripadvisor.com/Hotel_Review-g187870-d229077-Reviews-Amadeus_Hotel-Venice_Veneto.html", "reviews": 1063, "rating": 3.5, "price_range_usd": {"min": 100, "max": 261}, "phone": "+39 041 220 6000", "address": "Lista di Spagna, Cannaregio 227, 30121 Venice Italy", "detailed_address": {"street": "Lista di Spagna, Cannaregio 227", "city": "Venice", "postal_code": "30121", "state": null, "country": "Italy"}, "ranking": {"current_rank": 230, "total": 366}, "featured_image": null, "latitude": 45.44271, "longitude": 12.324232, "amenities": ["Breakfast included"], "providers": []}, {"id": 2285644, "name": "Ca' Rialto House", "link": "https://www.tripadvisor.com/Hotel_Review-g187870-d2285644-Reviews-Ca_Rialto_House-Venice_Veneto.html", "reviews": 85, "rating": 4, "price_range_usd": {"min": 98, "max": 196}, "phone": "+39 041 520 9166", "address": "San Marco 5109 Riva del Ferro/Ponte di Rialto, 30124 Venice Italy", "detailed_address": {"street": "San Marco 5109, Riva del Ferro/Ponte di Rialto", "city": "Venice", "postal_code": "30124", "state": null, "country": "Italy"}, "ranking": {"current_rank": 173, "total": 479}, "featured_image": null, "latitude": 45.43765, "longitude": 12.336122, "amenities": ["Free Wifi", "Airport transportation"], "providers": []}, {"id": 235872, "name": "Hotel La Calcina", "link": "https://www.tripadvisor.com/Hotel_Review-g187870-d235872-Reviews-Hotel_La_Calcina-Venice_Veneto.html", "reviews": 1118, "rating": 4.5, "price_range_usd": {"min": 129, "max": 253}, "phone": "+39 041 520 6466", "address": "Campiello de la Calcina Dorsoduro 780 Zattere, 30123 Venice Italy", "detailed_address": {"street": "Campiello de la Calcina Dorsoduro 780, Zattere", "city": "Venice", "postal_code": "30123", "state": null, "country": "Italy"}, "ranking": {"current_rank": 24, "total": 479}, "featured_image": null, "latitude": 45.429058, "longitude": 12.328584, "amenities": ["Free Wifi", "Breakfast included", "Restaurant", "Room service", "Pets Allowed"], "providers": []}, {"id": 229066, "name": "Hotel Colombina", "link": "https://www.tripadvisor.com/Hotel_Review-g187870-d229066-Reviews-Hotel_Colombina-Venice_Veneto.html", "reviews": 2669, "rating": 4.5, "price_range_usd": {"min": 163, "max": 367}, "phone": "+39 041 277 0525", "address": "Calle Del Remedio Castello 4416, 30122 Venice Italy", "detailed_address": {"street": "Calle Del Remedio, Castello 4416", "city": "Venice", "postal_code": "30122", "state": null, "country": "Italy"}, "ranking": {"current_rank": 20, "total": 366}, "featured_image": null, "latitude": 45.43585, "longitude": 12.340366, "amenities": ["Free Wifi", "Room service", "Bar/Lounge"], "providers": []}, {"id": 575963, "name": "San Lio Tourist House", "link": "https://www.tripadvisor.com/Hotel_Review-g187870-d575963-Reviews-San_Lio_Tourist_House-Venice_Veneto.html", "reviews": 363, "rating": 3.5, "price_range_usd": {"min": 99, "max": 292}, "phone": "+39 041 458 6611", "address": "Castello, 5607 Campo San Lio, 30122 Venice Italy", "detailed_address": {"street": "Castello, 5607, Campo San Lio", "city": "Venice", "postal_code": "30122", "state": null, "country": "Italy"}, "ranking": {"current_rank": 162, "total": 479}, "featured_image": null, "latitude": 45.437542, "longitude": 12.338223, "amenities": ["Free Wifi"], "providers": []}, {"id": 237411, "name": "Locanda Ai Santi Apostoli", "link": "https://www.tripadvisor.com/Hotel_Review-g187870-d237411-Reviews-Locanda_Ai_Santi_Apostoli-Venice_Veneto.html", "reviews": 547, "rating": 4.5, "price_range_usd": {"min": 65, "max": 268}, "phone": "+39 041 830 6250", "address": "Calle Santi Apostoli Cannaregio 4391 A Campo Santi Apostoli, 30121 Venice Italy", "detailed_address": {"street": "Calle Santi Apostoli Cannaregio 4391 A, Campo Santi Apostoli", "city": "Venice", "postal_code": "30121", "state": null, "country": "Italy"}, "ranking": {"current_rank": 44, "total": 479}, "featured_image": null, "latitude": 45.440437, "longitude": 12.335726, "amenities": ["Free Wifi"], "providers": []}, {"id": 228963, "name": "Metropole Hotel Venezia", "link": "https://www.tripadvisor.com/Hotel_Review-g187870-d228963-Reviews-Metropole_Hotel_Venezia-Venice_Veneto.html", "reviews": 1656, "rating": 4.5, "price_range_usd": {"min": 360, "max": 568}, "phone": "+39 041 520 5044", "address": "Riva Degli Schiavoni 4149, 30122 Venice Italy", "detailed_address": {"street": "Riva Degli Schiavoni 4149", "city": "Venice", "postal_code": "30122", "state": null, "country": "Italy"}, "ranking": {"current_rank": 112, "total": 366}, "featured_image": null, "latitude": 45.43407, "longitude": 12.345322, "amenities": ["Free Wifi", "Restaurant", "Airport transportation", "Room service", "Pets Allowed"], "providers": []}, {"id": 269266, "name": "Hotel al Ponte dei Sospiri", "link": "https://www.tripadvisor.com/Hotel_Review-g187870-d269266-Reviews-Hotel_al_Ponte_dei_Sospiri-Venice_Veneto.html", "reviews": 705, "rating": 4.5, "price_range_usd": {"min": 141, "max": 320}, "phone": "+39 041 241 1160", "address": "San Marco 381, 30124 Venice Italy", "detailed_address": {"street": "San Marco 381", "city": "Venice", "postal_code": "30124", "state": null, "country": "Italy"}, "ranking": {"current_rank": 65, "total": 366}, "featured_image": null, "latitude": 45.43527, "longitude": 12.340224, "amenities": ["Free Wifi", "Breakfast included", "Room service"], "providers": []}, {"id": 614363, "name": "Palazzina Grassi", "link": "https://www.tripadvisor.com/Hotel_Review-g187870-d614363-Reviews-Palazzina_Grassi-Venice_Veneto.html", "reviews": 117, "rating": 4.5, "price_range_usd": {"min": 451, "max": 795}, "phone": "+39 041 528 4644", "address": "Ramo Grassi 3247 A short distance from Piazza San Marco., 30124 Venice Italy", "detailed_address": {"street": "Ramo Grassi 3247, A short distance from Piazza San Marco.", "city": "Venice", "postal_code": "30124", "state": null, "country": "Italy"}, "ranking": {"current_rank": 78, "total": 366}, "featured_image": null, "latitude": 45.43403, "longitude": 12.328104, "amenities": ["Free Wifi", "Breakfast included", "Restaurant", "Airport transportation", "Room service"], "providers": []}, {"id": 618209, "name": "Hotel Dalla Mora", "link": "https://www.tripadvisor.com/Hotel_Review-g187870-d618209-Reviews-Hotel_Dalla_Mora-Venice_Veneto.html", "reviews": 678, "rating": 4.5, "price_range_usd": {"min": 100, "max": 106}, "phone": "+39 041 710703", "address": "Salizada San Pantalon Santa Croce n. 42, 30135 Venice Italy", "detailed_address": {"street": "Salizada San Pantalon, Santa Croce n. 42", "city": "Venice", "postal_code": "30135", "state": null, "country": "Italy"}, "ranking": {"current_rank": 119, "total": 366}, "featured_image": null, "latitude": 45.436363, "longitude": 12.32296, "amenities": ["Free Wifi", "Breakfast included"], "providers": []}, {"id": 2101263, "name": "Palazzetto Pisani Boutique Resort", "link": "https://www.tripadvisor.com/Hotel_Review-g187870-d2101263-Reviews-Palazzetto_Pisani_Boutique_Resort-Venice_Veneto.html", "reviews": 687, "rating": 4, "price_range_usd": {"min": 97, "max": 297}, "phone": "+39 041 523 2550", "address": "San Marco 2814, 30124 Venice Italy", "detailed_address": {"street": "San Marco 2814", "city": "Venice", "postal_code": "30124", "state": null, "country": "Italy"}, "ranking": {"current_rank": 179, "total": 366}, "featured_image": null, "latitude": 45.43202, "longitude": 12.330279, "amenities": ["Free Wifi", "Restaurant", "Airport transportation", "Room service", "Bar/Lounge"], "providers": []}, {"id": 565078, "name": "A Tribute To Music", "link": "https://www.tripadvisor.com/Hotel_Review-g187870-d565078-Reviews-A_Tribute_To_Music-Venice_Veneto.html", "reviews": 812, "rating": 4.5, "price_range_usd": {"min": 97, "max": 224}, "phone": "+39 041 296 0714", "address": "Castello 4127 Riva Degli Schiavoni, 30100 Venice Italy", "detailed_address": {"street": "Castello 4127, Riva Degli Schiavoni", "city": "Venice", "postal_code": "30100", "state": null, "country": "Italy"}, "ranking": {"current_rank": 137, "total": 366}, "featured_image": null, "latitude": 45.43377, "longitude": 12.3468, "amenities": ["Free Wifi"], "providers": []}, {"id": 278196, "name": "Hotel Ca' dei Conti", "link": "https://www.tripadvisor.com/Hotel_Review-g187870-d278196-Reviews-Hotel_Ca_dei_Conti-Venice_Veneto.html", "reviews": 1554, "rating": 4, "price_range_usd": {"min": 83, "max": 231}, "phone": "+39 041 277 0500", "address": "Castello 4429, 30122 Venice Italy", "detailed_address": {"street": "Castello 4429", "city": "Venice", "postal_code": "30122", "state": null, "country": "Italy"}, "ranking": {"current_rank": 218, "total": 366}, "featured_image": null, "latitude": 45.436012, "longitude": 12.341194, "amenities": ["Free Wifi", "Breakfast included", "Room service", "Pets Allowed"], "providers": []}, {"id": 7623031, "name": "Hotel Ai Cavalieri", "link": "https://www.tripadvisor.com/Hotel_Review-g187870-d7623031-Reviews-Hotel_Ai_Cavalieri-Venice_Veneto.html", "reviews": 1193, "rating": 5, "price_range_usd": {"min": 195, "max": 454}, "phone": "+39 041 241 1064", "address": "Calle Borgoloco 6108, 30122 Venice Italy", "detailed_address": {"street": "Calle Borgoloco 6108", "city": "Venice", "postal_code": "30122", "state": null, "country": "Italy"}, "ranking": {"current_rank": 53, "total": 366}, "featured_image": null, "latitude": 45.438286, "longitude": 12.34008, "amenities": ["Free Wifi", "Breakfast included", "Room service", "Bar/Lounge"], "providers": []}, {"id": 7948150, "name": "Hotel Sogno Di Giulietta E Romeo", "link": "https://www.tripadvisor.com/Hotel_Review-g187870-d7948150-Reviews-Hotel_Sogno_Di_Giulietta_E_Romeo-Venice_Veneto.html", "reviews": 170, "rating": 4, "price_range_usd": {"min": 109, "max": 230}, "phone": "+39 335 170 1194", "address": "San Polo 1858 - Campo San Cassiano, 30125 Venice Italy", "detailed_address": {"street": "San Polo 1858 - Campo San Cassiano", "city": "Venice", "postal_code": "30125", "state": null, "country": "Italy"}, "ranking": {"current_rank": 132, "total": 479}, "featured_image": null, "latitude": 45.43967, "longitude": 12.332304, "amenities": ["Free Wifi", "Breakfast included", "Pets Allowed"], "providers": []}, {"id": 8667347, "name": "Leone Hotel", "link": "https://www.tripadvisor.com/Hotel_Review-g187870-d8667347-Reviews-Leone_Hotel-Venice_Veneto.html", "reviews": 33, "rating": 5, "price_range_usd": {"min": 93, "max": 223}, "phone": "+39 041 268 8128", "address": "Sestiere Cannaregio 1250, 30121 Venice Italy", "detailed_address": {"street": "Sestiere Cannaregio 1250", "city": "Venice", "postal_code": "30121", "state": null, "country": "Italy"}, "ranking": {"current_rank": 116, "total": 479}, "featured_image": null, "latitude": 45.44409, "longitude": 12.325117, "amenities": ["Free Wifi", "Pets Allowed"], "providers": []}, {"id": 529141, "name": "Boutique Hotel Palazzo Vitturi", "link": "https://www.tripadvisor.com/Hotel_Review-g187870-d529141-Reviews-Boutique_Hotel_Palazzo_Vitturi-Venice_Veneto.html", "reviews": 1473, "rating": 4.5, "price_range_usd": {"min": 136, "max": 332}, "phone": "+39 041 241 0856", "address": "Castello, 5246 Campo Santa Maria Formosa, 30122 Venice Italy", "detailed_address": {"street": "Castello, 5246, Campo Santa Maria Formosa", "city": "Venice", "postal_code": "30122", "state": null, "country": "Italy"}, "ranking": {"current_rank": 71, "total": 366}, "featured_image": null, "latitude": 45.43727, "longitude": 12.341408, "amenities": ["Free Wifi", "Breakfast included", "Bar/Lounge"], "providers": []}, {"id": 237386, "name": "Hotel Malibran", "link": "https://www.tripadvisor.com/Hotel_Review-g187870-d237386-Reviews-Hotel_Malibran-Venice_Veneto.html", "reviews": 643, "rating": 3.5, "price_range_usd": {"min": 77, "max": 156}, "phone": "+39 041 522 8028", "address": "Corte Del Teatro Malibran, 5864, 30131 Venice Italy", "detailed_address": {"street": "Corte Del Teatro Malibran, 5864", "city": "Venice", "postal_code": "30131", "state": null, "country": "Italy"}, "ranking": {"current_rank": 223, "total": 366}, "featured_image": null, "latitude": 45.43898, "longitude": 12.337654, "amenities": ["Free Wifi", "Breakfast included", "Restaurant"], "providers": []}, {"id": 8517810, "name": "Liassidi Wellness Suites", "link": "https://www.tripadvisor.com/Hotel_Review-g187870-d8517810-Reviews-Liassidi_Wellness_Suites-Venice_Veneto.html", "reviews": 133, "rating": 4.5, "price_range_usd": {"min": 199, "max": 418}, "phone": "+39 041 520 1229", "address": "Castello 3335, 30122 Venice Italy", "detailed_address": {"street": "Castello 3335", "city": "Venice", "postal_code": "30122", "state": null, "country": "Italy"}, "ranking": {"current_rank": 197, "total": 366}, "featured_image": null, "latitude": 45.435646, "longitude": 12.345939, "amenities": ["Free Wifi", "Breakfast included", "Room service"], "providers": []}, {"id": 490875, "name": "Ca' Pozzo Inn", "link": "https://www.tripadvisor.com/Hotel_Review-g187870-d490875-Reviews-Ca_Pozzo_Inn-Venice_Veneto.html", "reviews": 930, "rating": 4.5, "price_range_usd": {"min": 141, "max": 250}, "phone": "+39 041 524 0504", "address": "Cannaregio 1279 Sotoportego Ca' Pozzo, 30121 Venice Italy", "detailed_address": {"street": "Cannaregio 1279, Sotoportego Ca' Pozzo", "city": "Venice", "postal_code": "30121", "state": null, "country": "Italy"}, "ranking": {"current_rank": 32, "total": 479}, "featured_image": null, "latitude": 45.44381, "longitude": 12.325772, "amenities": ["Free Wifi", "Pets Allowed"], "providers": []}, {"id": 809807, "name": "Hotel Ca' Alvise", "link": "https://www.tripadvisor.com/Hotel_Review-g187870-d809807-Reviews-Hotel_Ca_Alvise-Venice_Veneto.html", "reviews": 784, "rating": 4, "price_range_usd": {"min": 116, "max": 297}, "phone": "+39 041 520 4515", "address": "San Marco 3673, 30124 Venice Italy", "detailed_address": {"street": "San Marco 3673", "city": "Venice", "postal_code": "30124", "state": null, "country": "Italy"}, "ranking": {"current_rank": 180, "total": 366}, "featured_image": null, "latitude": 45.43456, "longitude": 12.333392, "amenities": ["Free Wifi", "Breakfast included", "Airport transportation", "Room service", "Pets Allowed"], "providers": []}, {"id": 21506265, "name": "Ca' Di Dio - Vretreats", "link": "https://www.tripadvisor.com/Hotel_Review-g187870-d21506265-Reviews-Ca_Di_Dio_Vretreats-Venice_Veneto.html", "reviews": 259, "rating": 5, "price_range_usd": {"min": 301, "max": 484}, "phone": "+39 041 098 0238", "address": "Riva Ca' di Dio, 2181, 30122 Venice Italy", "detailed_address": {"street": "Riva Ca' di Dio, 2181", "city": "Venice", "postal_code": "30122", "state": null, "country": "Italy"}, "ranking": {"current_rank": 39, "total": 366}, "featured_image": null, "latitude": 45.43355, "longitude": 12.348505, "amenities": ["Free Wifi", "Restaurant", "Room service", "Pets Allowed", "Bar/Lounge"], "providers": []}, {"id": 232948, "name": "Hotel Gorizia A La Valigia", "link": "https://www.tripadvisor.com/Hotel_Review-g187870-d232948-Reviews-Hotel_Gorizia_A_La_Valigia-Venice_Veneto.html", "reviews": 1194, "rating": 4, "price_range_usd": {"min": 111, "max": 243}, "phone": "+39 041 522 3737", "address": "Calle Dei Fabbri, 4696/A San Marco, 30124 Venice Italy", "detailed_address": {"street": "Calle Dei Fabbri, 4696/A, San Marco", "city": "Venice", "postal_code": "30124", "state": null, "country": "Italy"}, "ranking": {"current_rank": 145, "total": 366}, "featured_image": null, "latitude": 45.43569, "longitude": 12.336377, "amenities": ["Free Wifi", "Breakfast included", "Room service", "Bar/Lounge"], "providers": []}, {"id": 1466198, "name": "Veneziacentopercento Apartments & Rooms", "link": "https://www.tripadvisor.com/Hotel_Review-g187870-d1466198-Reviews-Veneziacentopercento_Apartments_Rooms-Venice_Veneto.html", "reviews": 337, "rating": 4.5, "price_range_usd": {"min": 68, "max": 173}, "phone": "+39 328 916 2535", "address": "30122 Venice Italy", "detailed_address": {"street": "", "city": "Venice", "postal_code": "30122", "state": null, "country": "Italy"}, "ranking": {"current_rank": 66, "total": 479}, "featured_image": null, "latitude": 45.431126, "longitude": 12.358215, "amenities": ["Free Wifi", "Pets Allowed"], "providers": []}, {"id": 237416, "name": "Antica Locanda Al Gambero", "link": "https://www.tripadvisor.com/Hotel_Review-g187870-d237416-Reviews-Antica_Locanda_Al_Gambero-Venice_Veneto.html", "reviews": 732, "rating": 4, "price_range_usd": {"min": 101, "max": 266}, "phone": "+39 041 522 4384", "address": "Calle dei Fabbri, 4687, 30124 Venice Italy", "detailed_address": {"street": "Calle dei Fabbri, 4687", "city": "Venice", "postal_code": "30124", "state": null, "country": "Italy"}, "ranking": {"current_rank": 148, "total": 366}, "featured_image": null, "latitude": 45.435524, "longitude": 12.33659, "amenities": ["Free Wifi", "Breakfast included", "Restaurant", "Bar/Lounge"], "providers": []}, {"id": 239026, "name": "Hotel Citta di Milano", "link": "https://www.tripadvisor.com/Hotel_Review-g187870-d239026-Reviews-Hotel_Citta_di_Milano-Venice_Veneto.html", "reviews": 476, "rating": 3, "price_range_usd": {"min": 82, "max": 215}, "phone": "+39 041 522 7002", "address": "Sestiere San Marco 590 Campiello S. Zulian, 30124 Venice Italy", "detailed_address": {"street": "Sestiere San Marco 590, Campiello S. Zulian", "city": "Venice", "postal_code": "30124", "state": null, "country": "Italy"}, "ranking": {"current_rank": 202, "total": 340}, "featured_image": null, "latitude": 45.435978, "longitude": 12.338433, "amenities": [], "providers": []}]}, "error": null}