{"data": {"link": "https://www.tripadvisor.com/Hotels-g187870-oa90-Venice_Veneto-Hotels.html", "total_pages": 49, "current_page": 4, "total_items_count": 1467, "items_count": 30, "results": [{"id": 13451299, "name": "AC Hotel Venezia", "link": "https://www.tripadvisor.com/Hotel_Review-g187870-d13451299-Reviews-AC_Hotel_Venezia-Venice_Veneto.html", "reviews": 374, "rating": 4, "price_range_usd": {"min": 180, "max": 287}, "phone": "+39 041 852 0321", "address": "Rio Tera Sant'andrea 466, 30135 Venice Italy", "detailed_address": {"street": "Rio Tera Sant'andrea 466", "city": "Venice", "postal_code": "30135", "state": null, "country": "Italy"}, "ranking": {"current_rank": 149, "total": 366}, "featured_image": null, "latitude": 45.43733, "longitude": 12.318195, "amenities": ["Free Wifi", "Restaurant", "Room service", "Bar/Lounge"], "providers": []}, {"id": 316680, "name": "Hotel Locanda Salieri", "link": "https://www.tripadvisor.com/Hotel_Review-g187870-d316680-Reviews-Hotel_Locanda_Salieri-Venice_Veneto.html", "reviews": 385, "rating": 4, "price_range_usd": {"min": 70, "max": 136}, "phone": "+39 041 721843", "address": "Fondamenta Minotto Santa Croce 160 Canale del Gaffaro, Santa Croce, 30135 Venice Italy", "detailed_address": {"street": "Fondamenta Minotto Santa Croce 160, Canale del Gaffaro, Santa Croce", "city": "Venice", "postal_code": "30135", "state": null, "country": "Italy"}, "ranking": {"current_rank": 252, "total": 366}, "featured_image": null, "latitude": 45.436943, "longitude": 12.321606, "amenities": ["Free Wifi", "Breakfast included"], "providers": []}, {"id": 25333692, "name": "Palazzo Keller", "link": "https://www.tripadvisor.com/Hotel_Review-g187870-d25333692-Reviews-Palazzo_Keller-Venice_Veneto.html", "reviews": 169, "rating": 5, "price_range_usd": {"min": 189, "max": 444}, "phone": "+39 041 308 9762", "address": "Calle del Pestrin 3522, 30124 Venice Italy", "detailed_address": {"street": "Calle del Pestrin 3522", "city": "Venice", "postal_code": "30124", "state": null, "country": "Italy"}, "ranking": {"current_rank": 33, "total": 366}, "featured_image": null, "latitude": 45.43433, "longitude": 12.330803, "amenities": ["Free Wifi", "Breakfast included", "Room service", "Bar/Lounge"], "providers": []}, {"id": 292234, "name": "Albergo Casa Peron", "link": "https://www.tripadvisor.com/Hotel_Review-g187870-d292234-Reviews-Albergo_Casa_Peron-Venice_Veneto.html", "reviews": 79, "rating": 4, "price_range_usd": {"min": 63, "max": 131}, "phone": "+39 041 525 6057", "address": "Salizzada S. Pantalon, 84/85, 30135 Venice Italy", "detailed_address": {"street": "Salizzada S. Pantalon, 84/85", "city": "Venice", "postal_code": "30135", "state": null, "country": "Italy"}, "ranking": {"current_rank": 209, "total": 479}, "featured_image": null, "latitude": 45.436333, "longitude": 12.323701, "amenities": ["Free Wifi", "Pets Allowed"], "providers": []}, {"id": 1436873, "name": "Hotel San Luca", "link": "https://www.tripadvisor.com/Hotel_Review-g187870-d1436873-Reviews-Hotel_San_Luca-Venice_Veneto.html", "reviews": 472, "rating": 4, "price_range_usd": {"min": 66, "max": 177}, "phone": "+39 041 296 0833", "address": "Calle dei Fabbri, 4671, 30124 Venice Italy", "detailed_address": {"street": "Calle dei Fabbri, 4671", "city": "Venice", "postal_code": "30124", "state": null, "country": "Italy"}, "ranking": {"current_rank": 185, "total": 366}, "featured_image": null, "latitude": 45.43595, "longitude": 12.335846, "amenities": ["Free Wifi", "Pets Allowed"], "providers": []}, {"id": 2444147, "name": "Alberghiera Venezia", "link": "https://www.tripadvisor.com/Hotel_Review-g187870-d2444147-Reviews-Alberghiera_Venezia-Venice_Veneto.html", "reviews": 205, "rating": 4.5, "price_range_usd": {"min": 78, "max": 145}, "phone": "+39 041 522 7678", "address": "Cannaregio 539, 30121 Venice Italy", "detailed_address": {"street": "Cannaregio 539", "city": "Venice", "postal_code": "30121", "state": null, "country": "Italy"}, "ranking": {"current_rank": 94, "total": 479}, "featured_image": null, "latitude": 45.44389, "longitude": 12.320833, "amenities": ["Free Wifi"], "providers": []}, {"id": 230427, "name": "The Gritti Palace, a Luxury Collection Hotel, Venice", "link": "https://www.tripadvisor.com/Hotel_Review-g187870-d230427-Reviews-The_Gritti_Palace_a_Luxury_Collection_Hotel_Venice-Venice_Veneto.html", "reviews": 1942, "rating": 5, "price_range_usd": {"min": 1148, "max": 1795}, "phone": "+39 041 794611", "address": "Campo Santa Maria del Giglio 2467, 30124 Venice Italy", "detailed_address": {"street": "Campo Santa Maria del Giglio 2467", "city": "Venice", "postal_code": "30124", "state": null, "country": "Italy"}, "ranking": {"current_rank": 55, "total": 366}, "featured_image": null, "latitude": 45.431637, "longitude": 12.33325, "amenities": ["Free Wifi", "Restaurant", "Airport transportation", "Room service", "Bar/Lounge"], "providers": []}, {"id": 506683, "name": "Hotel Il Mercante di Venezia", "link": "https://www.tripadvisor.com/Hotel_Review-g187870-d506683-Reviews-Hotel_Il_Mercante_di_Venezia-Venice_Veneto.html", "reviews": 467, "rating": 3.5, "price_range_usd": {"min": 94, "max": 189}, "phone": "+39 041 275 9290", "address": "Calle de la Misericordia, 381, 30121 Venice Italy", "detailed_address": {"street": "Calle de la Misericordia, 381", "city": "Venice", "postal_code": "30121", "state": null, "country": "Italy"}, "ranking": {"current_rank": 227, "total": 366}, "featured_image": null, "latitude": 45.442524, "longitude": 12.322508, "amenities": ["Free Wifi", "Breakfast included"], "providers": []}, {"id": 12995350, "name": "Avani Rio Novo Venice Hotel", "link": "https://www.tripadvisor.com/Hotel_Review-g187870-d12995350-Reviews-Avani_Rio_Novo_Venice_Hotel-Venice_Veneto.html", "reviews": 788, "rating": 4.5, "price_range_usd": {"min": 168, "max": 340}, "phone": "+39 041 275 3511", "address": "Calle Larga Dei Ragusei Dorsoduro 3489/E-C, 30123 Venice Italy", "detailed_address": {"street": "Calle Larga Dei Ragusei Dorsoduro 3489/E-C", "city": "Venice", "postal_code": "30123", "state": null, "country": "Italy"}, "ranking": {"current_rank": 88, "total": 366}, "featured_image": null, "latitude": 45.43529, "longitude": 12.321571, "amenities": ["Free Wifi", "Restaurant", "Room service", "Pets Allowed", "Bar/Lounge"], "providers": []}, {"id": 289175, "name": "Hotel Villa Rosa", "link": "https://www.tripadvisor.com/Hotel_Review-g187870-d289175-Reviews-Hotel_Villa_Rosa-Venice_Veneto.html", "reviews": 681, "rating": 4, "price_range_usd": {"min": 101, "max": 209}, "phone": "+39 041 716569", "address": "Calle Pesaro, 389, 30121 Venice Italy", "detailed_address": {"street": "Calle Pesaro, 389", "city": "Venice", "postal_code": "30121", "state": null, "country": "Italy"}, "ranking": {"current_rank": 206, "total": 366}, "featured_image": null, "latitude": 45.44298, "longitude": 12.32222, "amenities": ["Free Wifi", "Breakfast included", "Bar/Lounge"], "providers": []}, {"id": 586581, "name": "Pensione Guerrato", "link": "https://www.tripadvisor.com/Hotel_Review-g187870-d586581-Reviews-Pensione_Guerrato-Venice_Veneto.html", "reviews": 711, "rating": 4.5, "price_range_usd": {"min": 105, "max": 227}, "phone": "+39 041 528 5927", "address": "Calle drio la Scimia 240/a Rialto, 30125 Venice Italy", "detailed_address": {"street": "Calle drio la Scimia 240/a, Rialto", "city": "Venice", "postal_code": "30125", "state": null, "country": "Italy"}, "ranking": {"current_rank": 127, "total": 366}, "featured_image": null, "latitude": 45.43932, "longitude": 12.334696, "amenities": ["Free Wifi", "Breakfast included"], "providers": []}, {"id": 235832, "name": "Antica Locanda Sturion Residenza D'Epoca", "link": "https://www.tripadvisor.com/Hotel_Review-g187870-d235832-Reviews-Antica_Locanda_Sturion_Residenza_D_Epoca-Venice_Veneto.html", "reviews": 498, "rating": 4, "price_range_usd": {"min": 121, "max": 274}, "phone": "+39 041 523 6243", "address": "Calle Del Sturion San Polo 679, 30125 Venice Italy", "detailed_address": {"street": "Calle Del Sturion, San Polo 679", "city": "Venice", "postal_code": "30125", "state": null, "country": "Italy"}, "ranking": {"current_rank": 121, "total": 366}, "featured_image": null, "latitude": 45.437702, "longitude": 12.334297, "amenities": ["Free Wifi", "Breakfast included"], "providers": []}, {"id": 472033, "name": "Hotel Scandinavia", "link": "https://www.tripadvisor.com/Hotel_Review-g187870-d472033-Reviews-Hotel_Scandinavia-Venice_Veneto.html", "reviews": 1050, "rating": 4, "price_range_usd": {"min": 83, "max": 192}, "phone": "+39 041 522 3507", "address": "Campo S. Maria Formosa 5240, 30122 Venice Italy", "detailed_address": {"street": "Campo S. Maria Formosa 5240", "city": "Venice", "postal_code": "30122", "state": null, "country": "Italy"}, "ranking": {"current_rank": 118, "total": 366}, "featured_image": null, "latitude": 45.43738, "longitude": 12.341291, "amenities": [], "providers": []}, {"id": 233889, "name": "Hotel Antico Doge", "link": "https://www.tripadvisor.com/Hotel_Review-g187870-d233889-Reviews-Hotel_Antico_Doge-Venice_Veneto.html", "reviews": 1353, "rating": 4.5, "price_range_usd": {"min": 143, "max": 374}, "phone": "+39 041 779 9990", "address": "Campo S.S. Apostoli Cannaregio, 5643, 30131 Venice Italy", "detailed_address": {"street": "Campo S.S. Apostoli Cannaregio, 5643", "city": "Venice", "postal_code": "30131", "state": null, "country": "Italy"}, "ranking": {"current_rank": 114, "total": 366}, "featured_image": null, "latitude": 45.440002, "longitude": 12.336551, "amenities": ["Free Wifi", "Breakfast included"], "providers": []}, {"id": 296854, "name": "Casa Sant'Andrea", "link": "https://www.tripadvisor.com/Hotel_Review-g187870-d296854-Reviews-Casa_Sant_Andrea-Venice_Veneto.html", "reviews": 662, "rating": 3.5, "price_range_usd": {"min": 70, "max": 133}, "phone": "+39 041 277 0945", "address": "Santa Croce 495, 30135 Venice Italy", "detailed_address": {"street": "Santa Croce 495", "city": "Venice", "postal_code": "30135", "state": null, "country": "Italy"}, "ranking": {"current_rank": 209, "total": 366}, "featured_image": null, "latitude": 45.43897, "longitude": 12.31639, "amenities": ["Free Wifi", "Breakfast included"], "providers": []}, {"id": 7392736, "name": "Hotel L'Orologio", "link": "https://www.tripadvisor.com/Hotel_Review-g187870-d7392736-Reviews-Hotel_L_Orologio-Venice_Veneto.html", "reviews": 1151, "rating": 4.5, "price_range_usd": {"min": 148, "max": 430}, "phone": "+39 041 272 5800", "address": "Sestiere San Polo - Riva de L'Ogio 1777, 30125 Venice Italy", "detailed_address": {"street": "Sestiere San Polo - Riva de L'Ogio 1777", "city": "Venice", "postal_code": "30125", "state": null, "country": "Italy"}, "ranking": {"current_rank": 63, "total": 366}, "featured_image": null, "latitude": 45.440132, "longitude": 12.333398, "amenities": ["Free Wifi", "Breakfast included", "Room service", "Bar/Lounge"], "providers": []}, {"id": 1086740, "name": "Hotel Indigo Venice - Sant'Elena, an IHG hotel", "link": "https://www.tripadvisor.com/Hotel_Review-g187870-d1086740-Reviews-Hotel_Indigo_Venice_Sant_Elena_an_IHG_hotel-Venice_Veneto.html", "reviews": 2061, "rating": 4.5, "price_range_usd": {"min": 113, "max": 293}, "phone": "+39 041 271 7811", "address": "Calle Buccari 10 Sant'Elena, 30132 Venice Italy", "detailed_address": {"street": "Calle Buccari 10, Sant'Elena", "city": "Venice", "postal_code": "30132", "state": null, "country": "Italy"}, "ranking": {"current_rank": 82, "total": 366}, "featured_image": null, "latitude": 45.42639, "longitude": 12.362841, "amenities": ["Free Wifi", "Restaurant", "Room service", "Pets Allowed", "Bar/Lounge"], "providers": []}, {"id": 4092443, "name": "Palazzetto Madonna", "link": "https://www.tripadvisor.com/Hotel_Review-g187870-d4092443-Reviews-Palazzetto_Madonna-Venice_Veneto.html", "reviews": 671, "rating": 4.5, "price_range_usd": {"min": 127, "max": 341}, "phone": "+39 041 307 1174", "address": "Fondamenta del Forner, 2902, 30125 Venice Italy", "detailed_address": {"street": "Fondamenta del Forner, 2902", "city": "Venice", "postal_code": "30125", "state": null, "country": "Italy"}, "ranking": {"current_rank": 105, "total": 366}, "featured_image": null, "latitude": 45.435596, "longitude": 12.327001, "amenities": ["Free Wifi", "Breakfast included", "Room service", "Pets Allowed", "Bar/Lounge"], "providers": []}, {"id": 13478751, "name": "Hotel Heureka", "link": "https://www.tripadvisor.com/Hotel_Review-g187870-d13478751-Reviews-Hotel_Heureka-Venice_Veneto.html", "reviews": 207, "rating": 5, "price_range_usd": {"min": 248, "max": 512}, "phone": "+39 041 524 6460", "address": "Cannaregio 3534, 30121 Venice Italy", "detailed_address": {"street": "Cannaregio 3534", "city": "Venice", "postal_code": "30121", "state": null, "country": "Italy"}, "ranking": {"current_rank": 8, "total": 366}, "featured_image": null, "latitude": 45.445755, "longitude": 12.333692, "amenities": ["Free Wifi", "Breakfast included", "Bar/Lounge"], "providers": []}, {"id": 2053654, "name": "Hotel Le Isole", "link": "https://www.tripadvisor.com/Hotel_Review-g187870-d2053654-Reviews-Hotel_Le_Isole-Venice_Veneto.html", "reviews": 1458, "rating": 5, "price_range_usd": {"min": 132, "max": 307}, "phone": "+39 041 522 8911", "address": "Campo San Provolo Castello 4661, 30124 Venice Italy", "detailed_address": {"street": "Campo San Provolo Castello 4661", "city": "Venice", "postal_code": "30124", "state": null, "country": "Italy"}, "ranking": {"current_rank": 37, "total": 366}, "featured_image": null, "latitude": 45.43469, "longitude": 12.342354, "amenities": ["Free Wifi", "Breakfast included", "Bar/Lounge"], "providers": []}, {"id": 529161, "name": "Hotel Adua", "link": "https://www.tripadvisor.com/Hotel_Review-g187870-d529161-Reviews-Hotel_Adua-Venice_Veneto.html", "reviews": 514, "rating": 3.5, "price_range_usd": {"min": 48, "max": 120}, "phone": "+39 041 716184", "address": "Sestiere di Canareggio 233, 30121 Venice Italy", "detailed_address": {"street": "Sestiere di Canareggio 233", "city": "Venice", "postal_code": "30121", "state": null, "country": "Italy"}, "ranking": {"current_rank": 160, "total": 479}, "featured_image": null, "latitude": 45.44253, "longitude": 12.324218, "amenities": ["Free Wifi", "Pets Allowed"], "providers": []}, {"id": 648266, "name": "Ca' Sagredo Hotel", "link": "https://www.tripadvisor.com/Hotel_Review-g187870-d648266-Reviews-Ca_Sagredo_Hotel-Venice_Veneto.html", "reviews": 1515, "rating": 4.5, "price_range_usd": {"min": 220, "max": 438}, "phone": "+39 041 241 3111", "address": "Campo Santa Sofia 4198/99, 30121 Venice Italy", "detailed_address": {"street": "Campo Santa Sofia 4198/99", "city": "Venice", "postal_code": "30121", "state": null, "country": "Italy"}, "ranking": {"current_rank": 120, "total": 366}, "featured_image": null, "latitude": 45.44075, "longitude": 12.334679, "amenities": ["Free Wifi", "Breakfast included", "Restaurant", "Room service", "Pets Allowed"], "providers": []}, {"id": 233892, "name": "Hotel La Fenice Et Des Artistes", "link": "https://www.tripadvisor.com/Hotel_Review-g187870-d233892-Reviews-Hotel_La_Fenice_Et_Des_Artistes-Venice_Veneto.html", "reviews": 924, "rating": 4, "price_range_usd": {"min": 111, "max": 252}, "phone": "+39 041 523 2333", "address": "San Marco 1936, 30124 Venice Italy", "detailed_address": {"street": "San Marco 1936", "city": "Venice", "postal_code": "30124", "state": null, "country": "Italy"}, "ranking": {"current_rank": 169, "total": 366}, "featured_image": null, "latitude": 45.433895, "longitude": 12.333384, "amenities": ["Free Wifi", "Breakfast included", "Room service", "Bar/Lounge"], "providers": []}, {"id": 284437, "name": "Hotel Locanda Fiorita", "link": "https://www.tripadvisor.com/Hotel_Review-g187870-d284437-Reviews-Hotel_Locanda_Fiorita-Venice_Veneto.html", "reviews": 363, "rating": 4.5, "price_range_usd": {"min": 106, "max": 215}, "phone": "+39 041 523 4754", "address": "Sestiere San Marco 3457, 30124 Venice Italy", "detailed_address": {"street": "Sestiere San Marco 3457", "city": "Venice", "postal_code": "30124", "state": null, "country": "Italy"}, "ranking": {"current_rank": 109, "total": 366}, "featured_image": null, "latitude": 45.43398, "longitude": 12.330524, "amenities": ["Free Wifi", "Breakfast included"], "providers": []}, {"id": 233902, "name": "Hotel Santa Marina", "link": "https://www.tripadvisor.com/Hotel_Review-g187870-d233902-Reviews-Hotel_Santa_Marina-Venice_Veneto.html", "reviews": 1053, "rating": 4, "price_range_usd": {"min": 97, "max": 253}, "phone": "+39 041 097 0132", "address": "Castello 6068, 30122 Venice Italy", "detailed_address": {"street": "Castello 6068", "city": "Venice", "postal_code": "30122", "state": null, "country": "Italy"}, "ranking": {"current_rank": 190, "total": 366}, "featured_image": null, "latitude": 45.438454, "longitude": 12.339215, "amenities": ["Breakfast included", "Bar/Lounge"], "providers": []}, {"id": 314855, "name": "Hotel Nazionale", "link": "https://www.tripadvisor.com/Hotel_Review-g187870-d314855-Reviews-Hotel_Nazionale-Venice_Veneto.html", "reviews": 558, "rating": 3, "price_range_usd": {"min": 88, "max": 184}, "phone": "+39 041 716133", "address": "Rio Tera Lista di Spagna, 158, 30121 Venice Italy", "detailed_address": {"street": "Rio Tera Lista di Spagna, 158", "city": "Venice", "postal_code": "30121", "state": null, "country": "Italy"}, "ranking": {"current_rank": 281, "total": 366}, "featured_image": null, "latitude": 45.442207, "longitude": 12.323439, "amenities": ["Free Wifi", "Breakfast included"], "providers": []}, {"id": 241741, "name": "Unahotels Ala Venezia", "link": "https://www.tripadvisor.com/Hotel_Review-g187870-d241741-Reviews-Unahotels_Ala_Venezia-Venice_Veneto.html", "reviews": 3957, "rating": 4.5, "price_range_usd": {"min": 156, "max": 284}, "phone": "+39 041 520 8333", "address": "San Marco 2494, 30124 Venice Italy", "detailed_address": {"street": "San Marco 2494", "city": "Venice", "postal_code": "30124", "state": null, "country": "Italy"}, "ranking": {"current_rank": 96, "total": 366}, "featured_image": null, "latitude": 45.432346, "longitude": 12.332697, "amenities": ["Free Wifi", "Room service", "Bar/Lounge"], "providers": []}, {"id": 1722910, "name": "Hotel Al Duca di Venezia", "link": "https://www.tripadvisor.com/Hotel_Review-g187870-d1722910-Reviews-Hotel_Al_Duca_di_Venezia-Venice_Veneto.html", "reviews": 1292, "rating": 4.5, "price_range_usd": {"min": 148, "max": 345}, "phone": "+39 041 812 3069", "address": "Campiello de la Chiesa, 1739, 30135 Venice Italy", "detailed_address": {"street": "Campiello de la Chiesa, 1739", "city": "Venice", "postal_code": "30135", "state": null, "country": "Italy"}, "ranking": {"current_rank": 85, "total": 366}, "featured_image": null, "latitude": 45.4416, "longitude": 12.32831, "amenities": ["Free Wifi", "Breakfast included"], "providers": []}, {"id": 295631, "name": "Palazzo Odoni", "link": "https://www.tripadvisor.com/Hotel_Review-g187870-d295631-Reviews-Palazzo_Odoni-Venice_Veneto.html", "reviews": 894, "rating": 4.5, "price_range_usd": {"min": 124, "max": 288}, "phone": "+39 041 275 9454", "address": "Fondamenta Minotto Santa Croce 151 Santa Croce, 30135 Venice Italy", "detailed_address": {"street": "Fondamenta Minotto Santa Croce 151, Santa Croce", "city": "Venice", "postal_code": "30135", "state": null, "country": "Italy"}, "ranking": {"current_rank": 23, "total": 479}, "featured_image": null, "latitude": 45.436745, "longitude": 12.322255, "amenities": ["Free Wifi", "Breakfast included", "Pets Allowed", "Bar/Lounge"], "providers": []}, {"id": 235822, "name": "Hotel Pensione Wildner", "link": "https://www.tripadvisor.com/Hotel_Review-g187870-d235822-Reviews-Hotel_Pensione_Wildner-Venice_Veneto.html", "reviews": 499, "rating": 4, "price_range_usd": {"min": 103, "max": 241}, "phone": "+39 041 522 7463", "address": "Riva Dei Schiavoni Castello 4161, 30122 Venice Italy", "detailed_address": {"street": "Riva Dei Schiavoni Castello 4161", "city": "Venice", "postal_code": "30122", "state": null, "country": "Italy"}, "ranking": {"current_rank": 156, "total": 366}, "featured_image": null, "latitude": 45.434113, "longitude": 12.343859, "amenities": ["Free Wifi", "Breakfast included", "Restaurant"], "providers": []}]}, "error": null}