{"data": {"link": "https://www.tripadvisor.com/Hotels-g187836-Lecco_Province_of_Lecco_Lombardy-Hotels.html", "total_pages": 3, "current_page": 1, "total_items_count": 74, "items_count": 30, "results": [{"id": 228997, "name": "NH Lecco Pontevecchio", "link": "https://www.tripadvisor.com/Hotel_Review-g187836-d228997-Reviews-NH_Lecco_Pontevecchio-Lecco_Province_of_Lecco_Lombardy.html", "reviews": 1740, "rating": 4.5, "price_range_usd": {"min": 106, "max": 140}, "phone": "+39 0341 238000", "address": "Via Azzone Visconti 84, 23900 Lecco Italy", "detailed_address": {"street": "Via Azzone Visconti 84", "city": "Lecco", "postal_code": "23900", "state": null, "country": "Italy"}, "ranking": {"current_rank": 1, "total": 7}, "featured_image": null, "latitude": 45.84856, "longitude": 9.392723, "amenities": ["Free Wifi", "Restaurant", "Room service", "Pets Allowed", "Bar/Lounge"], "providers": ["NH Hotels"]}, {"id": 7034469, "name": "Agriturismo Deviscio", "link": "https://www.tripadvisor.com/Hotel_Review-g187836-d7034469-Reviews-Agriturismo_Deviscio-Lecco_Province_of_Lecco_Lombardy.html", "reviews": 85, "rating": 5, "price_range_usd": {"min": 120, "max": 196}, "phone": "+39 0341 188 5866", "address": "3 Localita' Devizzo, 23900 Lecco Italy", "detailed_address": {"street": "3 Localita' Devizzo", "city": "Lecco", "postal_code": "23900", "state": null, "country": "Italy"}, "ranking": {"current_rank": 2, "total": 22}, "featured_image": null, "latitude": 45.85774, "longitude": 9.434754, "amenities": ["Free Wifi", "Free parking", "Breakfast included"], "providers": ["Booking.com"]}, {"id": 1392008, "name": "Alberi Hotel", "link": "https://www.tripadvisor.com/Hotel_Review-g187836-d1392008-Reviews-Alberi_Hotel-Lecco_Province_of_Lecco_Lombardy.html", "reviews": 233, "rating": 4, "price_range_usd": {"min": 139, "max": 176}, "phone": "+39 0341 350992", "address": "Lungolario Isonzo 4, 23900 Lecco Italy", "detailed_address": {"street": "Lungolario Isonzo 4", "city": "Lecco", "postal_code": "23900", "state": null, "country": "Italy"}, "ranking": {"current_rank": 2, "total": 7}, "featured_image": null, "latitude": 45.853363, "longitude": 9.388463, "amenities": ["Free Wifi", "Free parking", "Breakfast included", "Bar/Lounge"], "providers": ["Booking.com"]}, {"id": 6721032, "name": "B&B Montebello", "link": "https://www.tripadvisor.com/Hotel_Review-g187836-d6721032-Reviews-B_B_Montebello-Lecco_Province_of_Lecco_Lombardy.html", "reviews": 82, "rating": 3.5, "price_range_usd": {"min": 94, "max": 111}, "phone": "+39 0341 251379", "address": "Via Montebello 70, 23900 Lecco Italy", "detailed_address": {"street": "Via Montebello 70", "city": "Lecco", "postal_code": "23900", "state": null, "country": "Italy"}, "ranking": {"current_rank": 18, "total": 22}, "featured_image": null, "latitude": 45.86627, "longitude": 9.393494, "amenities": ["Free Wifi", "Free parking", "Breakfast included", "Pool", "Outdoor pool"], "providers": ["Booking.com"]}, {"id": 1537042, "name": "Hotel Don Abbondio", "link": "https://www.tripadvisor.com/Hotel_Review-g187836-d1537042-Reviews-Hotel_Don_Abbondio-Lecco_Province_of_Lecco_Lombardy.html", "reviews": 213, "rating": 4, "price_range_usd": {"min": 98, "max": 114}, "phone": "+39 0341 366315", "address": "Piazza Era 10, 23900 Lecco Italy", "detailed_address": {"street": "Piazza Era 10", "city": "Lecco", "postal_code": "23900", "state": null, "country": "Italy"}, "ranking": {"current_rank": 4, "total": 7}, "featured_image": null, "latitude": 45.843784, "longitude": 9.398767, "amenities": ["Free Wifi", "Breakfast included", "Airport transportation", "Bar/Lounge"], "providers": ["Booking.com"]}, {"id": 4493758, "name": "HLL Hotel LungoLago Lecco", "link": "https://www.tripadvisor.com/Hotel_Review-g187836-d4493758-Reviews-HLL_Hotel_LungoLago_Lecco-Lecco_Province_of_Lecco_Lombardy.html", "reviews": 226, "rating": 4, "price_range_usd": {"min": 77, "max": 136}, "phone": "+39 0341 367160", "address": "Lungolario Luigi Cadorna 20, 23900 Lecco Italy", "detailed_address": {"street": "Lungolario Luigi Cadorna 20", "city": "Lecco", "postal_code": "23900", "state": null, "country": "Italy"}, "ranking": {"current_rank": 3, "total": 7}, "featured_image": null, "latitude": 45.8589, "longitude": 9.384855, "amenities": ["Free Wifi", "Breakfast included"], "providers": ["Booking.com"]}, {"id": 5256925, "name": "Albergo Nicolin", "link": "https://www.tripadvisor.com/Hotel_Review-g187836-d5256925-Reviews-Albergo_Nicolin-Lecco_Province_of_Lecco_Lombardy.html", "reviews": 68, "rating": 4.5, "price_range_usd": {"min": 127, "max": 130}, "phone": "+39 0341 422122", "address": "Via Amilcare Ponchielli 54, 23900 Lecco Italy", "detailed_address": {"street": "Via Amilcare Ponchielli 54", "city": "Lecco", "postal_code": "23900", "state": null, "country": "Italy"}, "ranking": {"current_rank": 7, "total": 22}, "featured_image": null, "latitude": 45.834957, "longitude": 9.413969, "amenities": ["Free Wifi", "Free parking", "Breakfast included", "Restaurant", "Room service"], "providers": ["Booking.com"]}, {"id": 2095348, "name": "Polvara Trentuno Bed & Breakfast", "link": "https://www.tripadvisor.com/Hotel_Review-g187836-d2095348-Reviews-Polvara_Trentuno_Bed_Breakfast-Lecco_Province_of_Lecco_Lombardy.html", "reviews": 293, "rating": 5, "price_range_usd": {"min": 106, "max": 128}, "phone": "+39 331 174 9651", "address": "Via Monsignore Giuseppe Polvara 31, 23900 Lecco Italy", "detailed_address": {"street": "Via Monsignore Giuseppe Polvara 31", "city": "Lecco", "postal_code": "23900", "state": null, "country": "Italy"}, "ranking": {"current_rank": 1, "total": 22}, "featured_image": null, "latitude": 45.848904, "longitude": 9.408301, "amenities": ["Free Wifi"], "providers": ["Booking.com"]}, {"id": 11638903, "name": "Villa del Cigno", "link": "https://www.tripadvisor.com/Hotel_Review-g187836-d11638903-Reviews-Villa_del_Cigno-Lecco_Province_of_Lecco_Lombardy.html", "reviews": 81, "rating": 5, "price_range_usd": {"min": 84, "max": 101}, "phone": "+39 334 601 9100", "address": "Via Caldone 3, 23900 Lecco Italy", "detailed_address": {"street": "Via Caldone 3", "city": "Lecco", "postal_code": "23900", "state": null, "country": "Italy"}, "ranking": {"current_rank": 4, "total": 22}, "featured_image": null, "latitude": 45.86085, "longitude": 9.40085, "amenities": ["Free Wifi", "Free parking", "Breakfast included", "Pets Allowed", "Bar/Lounge"], "providers": ["Booking.com"]}, {"id": 14053911, "name": "La Nostra Casa in Centro", "link": "https://www.tripadvisor.com/Hotel_Review-g187836-d14053911-Reviews-La_Nostra_Casa_in_Centro-Lecco_Province_of_Lecco_Lombardy.html", "reviews": 16, "rating": 4.5, "price_range_usd": {"min": 96, "max": 122}, "phone": "+39 328 464 3379", "address": "Corso Martiri della Liberazione 24, 23900 Lecco Italy", "detailed_address": {"street": "Corso Martiri della Liberazione 24", "city": "Lecco", "postal_code": "23900", "state": null, "country": "Italy"}, "ranking": {"current_rank": 11, "total": 22}, "featured_image": null, "latitude": 45.85093, "longitude": 9.39312, "amenities": ["Free Wifi"], "providers": ["Booking.com"]}, {"id": 2136736, "name": "B&B Partenza Funivia", "link": "https://www.tripadvisor.com/Hotel_Review-g187836-d2136736-Reviews-B_B_Partenza_Funivia-Lecco_Province_of_Lecco_Lombardy.html", "reviews": 134, "rating": 4.5, "price_range_usd": {"min": 85, "max": 86}, "phone": "+39 0341 499244", "address": "Via Prealpi 34, 23900 Lecco Italy", "detailed_address": {"street": "Via Prealpi 34", "city": "Lecco", "postal_code": "23900", "state": null, "country": "Italy"}, "ranking": {"current_rank": 3, "total": 22}, "featured_image": null, "latitude": 45.863346, "longitude": 9.428079, "amenities": ["Free Wifi", "Free parking", "Breakfast included", "Bar/Lounge"], "providers": ["Priceline"]}, {"id": 7082641, "name": "B&B Il Lago Dipinto", "link": "https://www.tripadvisor.com/Hotel_Review-g187836-d7082641-Reviews-B_B_Il_Lago_Dipinto-Lecco_Province_of_Lecco_Lombardy.html", "reviews": 68, "rating": 5, "price_range_usd": {"min": 90, "max": 102}, "phone": "+39 338 236 4353", "address": "Via Massimo d'Azeglio 22, 23900 Lecco Italy", "detailed_address": {"street": "Via Massimo d'Azeglio 22", "city": "Lecco", "postal_code": "23900", "state": null, "country": "Italy"}, "ranking": {"current_rank": 5, "total": 22}, "featured_image": null, "latitude": 45.86376, "longitude": 9.38828, "amenities": ["Free Wifi", "Free parking", "Breakfast included"], "providers": ["Booking.com"]}, {"id": 7086342, "name": "Campeggio Rivabella", "link": "https://www.tripadvisor.com/Hotel_Review-g187836-d7086342-Reviews-Campeggio_Rivabella-Lecco_Province_of_Lecco_Lombardy.html", "reviews": 59, "rating": 3, "price_range_usd": {"min": 91, "max": 139}, "phone": "+39 339 739 6373", "address": "Via Alla Spiaggia 35, 23900 Lecco Italy", "detailed_address": {"street": "Via Alla Spiaggia 35", "city": "Lecco", "postal_code": "23900", "state": null, "country": "Italy"}, "ranking": {"current_rank": 7, "total": 25}, "featured_image": null, "latitude": 45.82126, "longitude": 9.414313, "amenities": ["Beachfront", "Pets Allowed", "Bar/Lounge"], "providers": ["Booking.com"]}, {"id": 25338599, "name": "La Casa Del Sarto - Rooms & Apartments", "link": "https://www.tripadvisor.com/Hotel_Review-g187836-d25338599-Reviews-La_Casa_Del_Sarto_Rooms_Apartments-Lecco_Province_of_Lecco_Lombardy.html", "reviews": 5, "rating": 5, "price_range_usd": {"min": 102, "max": 113}, "phone": "+39 351 656 7123", "address": "Via Vincenzo Bellini, 8, 23900 Lecco Italy", "detailed_address": {"street": "Via Vincenzo Bellini, 8", "city": "Lecco", "postal_code": "23900", "state": null, "country": "Italy"}, "ranking": {"current_rank": 3, "total": 25}, "featured_image": null, "latitude": 45.82389, "longitude": 9.418976, "amenities": ["Free Wifi", "Free parking", "Pets Allowed"], "providers": ["Booking.com"]}, {"id": 27168464, "name": "Lecco Hostel & Rooms", "link": "https://www.tripadvisor.com/Hotel_Review-g187836-d27168464-Reviews-Lecco_Hostel_Rooms-Lecco_Province_of_Lecco_Lombardy.html", "reviews": 9, "rating": 4, "price_range_usd": {"min": 67, "max": 91}, "phone": "+39 0341 209656", "address": "Corso Giacomo Matteotti, 89 A, 23900 Lecco Italy", "detailed_address": {"street": "Corso Giacomo Matteotti, 89 A", "city": "Lecco", "postal_code": "23900", "state": null, "country": "Italy"}, "ranking": {"current_rank": 5, "total": 25}, "featured_image": null, "latitude": 45.86363, "longitude": 9.401412, "amenities": ["Free parking", "Restaurant", "Bar/Lounge"], "providers": ["Booking.com"]}, {"id": 2059454, "name": "Relais Il Presidio", "link": "https://www.tripadvisor.com/Hotel_Review-g187836-d2059454-Reviews-Relais_Il_Presidio-Lecco_Province_of_Lecco_Lombardy.html", "reviews": 69, "rating": 5, "price_range_usd": {"min": 136, "max": 139}, "phone": "+39 340 657 2205", "address": "Via Carlo Cassina 17 frazione di Imberido di Oggiono, 23848 Lecco Italy", "detailed_address": {"street": "Via Carlo Cassina 17, frazione di Imberido di Oggiono", "city": "Lecco", "postal_code": "23848", "state": null, "country": "Italy"}, "ranking": {"current_rank": 6, "total": 22}, "featured_image": null, "latitude": 45.80737, "longitude": 9.359085, "amenities": ["Free parking", "Room service"], "providers": ["Booking.com"]}, {"id": 27175029, "name": "Palazzo Novecento", "link": "https://www.tripadvisor.com/Hotel_Review-g187836-d27175029-Reviews-Palazzo_Novecento-Lecco_Province_of_Lecco_Lombardy.html", "reviews": 1, "rating": 5, "price_range_usd": {"min": 85, "max": 117}, "phone": null, "address": "44 Via Camillo Benso Conte di Cavour, 23900 Lecco Italy", "detailed_address": {"street": "44 Via Camillo Benso Conte di Cavour", "city": "Lecco", "postal_code": "23900", "state": null, "country": "Italy"}, "ranking": {"current_rank": 19, "total": 22}, "featured_image": null, "latitude": 45.85432, "longitude": 9.39123, "amenities": [], "providers": ["Booking.com"]}, {"id": 4232357, "name": "Rifugio Marchett", "link": "https://www.tripadvisor.com/Hotel_Review-g187836-d4232357-Reviews-Rifugio_Marchett-Lecco_Province_of_Lecco_Lombardy.html", "reviews": 120, "rating": 3.5, "price_range_usd": {"min": null, "max": null}, "phone": null, "address": "Localita Piani d'Erna, 23900 Lecco Italy", "detailed_address": {"street": "Localita Piani d'Erna", "city": "Lecco", "postal_code": "23900", "state": null, "country": "Italy"}, "ranking": {"current_rank": 8, "total": 25}, "featured_image": null, "latitude": 45.870373, "longitude": 9.449487, "amenities": ["Restaurant", "Pets Allowed", "Bar/Lounge"], "providers": ["Booking.com"]}, {"id": 8018003, "name": "Villa Puccini B&B", "link": "https://www.tripadvisor.com/Hotel_Review-g187836-d8018003-Reviews-Villa_Puccini_B_B-Lecco_Province_of_Lecco_Lombardy.html", "reviews": 64, "rating": 4, "price_range_usd": {"min": null, "max": null}, "phone": "+39 338 271 2477", "address": "Via Giacomo Puccini n. 8, 23900 Lecco Italy", "detailed_address": {"street": "Via Giacomo Puccini n. 8", "city": "Lecco", "postal_code": "23900", "state": null, "country": "Italy"}, "ranking": {"current_rank": 15, "total": 22}, "featured_image": null, "latitude": 45.82765, "longitude": 9.41855, "amenities": ["Free Wifi", "Free parking", "Breakfast included", "Bar/Lounge"], "providers": ["Priceline"]}, {"id": 9802855, "name": "B&B Como Lake Cottage", "link": "https://www.tripadvisor.com/Hotel_Review-g187836-d9802855-Reviews-B_B_Como_Lake_Cottage-Lecco_Province_of_Lecco_Lombardy.html", "reviews": 17, "rating": 4.5, "price_range_usd": {"min": 93, "max": 111}, "phone": "+39 377 690 3682", "address": "Via Grado 6, 23900 Lecco Italy", "detailed_address": {"street": "Via Grado 6", "city": "Lecco", "postal_code": "23900", "state": null, "country": "Italy"}, "ranking": {"current_rank": 2, "total": 25}, "featured_image": null, "latitude": 45.86252, "longitude": 9.384696, "amenities": ["Free Wifi", "Free parking", "Breakfast included", "Beachfront", "Airport transportation"], "providers": ["Booking.com"]}, {"id": 6434727, "name": "Il Giardino Delle Fate", "link": "https://www.tripadvisor.com/Hotel_Review-g187836-d6434727-Reviews-Il_Giardino_Delle_Fate-Lecco_Province_of_Lecco_Lombardy.html", "reviews": 9, "rating": 4, "price_range_usd": {"min": 104, "max": 117}, "phone": "+39 333 500 0990", "address": "Via Monsignore Giuseppe Polvara 14/e, 23900 Lecco Italy", "detailed_address": {"street": "Via Monsignore Giuseppe Polvara 14/e", "city": "Lecco", "postal_code": "23900", "state": null, "country": "Italy"}, "ranking": {"current_rank": 9, "total": 25}, "featured_image": null, "latitude": 45.84678, "longitude": 9.40688, "amenities": ["Free Wifi", "Breakfast included", "Pets Allowed"], "providers": ["Booking.com"]}, {"id": 7082432, "name": "Rocca Dell'innominato", "link": "https://www.tripadvisor.com/Hotel_Review-g187836-d7082432-Reviews-Rocca_Dell_innominato-Lecco_Province_of_Lecco_Lombardy.html", "reviews": 56, "rating": 4.5, "price_range_usd": {"min": 87, "max": 103}, "phone": "+39 335 132 5130", "address": "Via del Sarto 30, 23900 Lecco Italy", "detailed_address": {"street": "Via del Sarto 30", "city": "Lecco", "postal_code": "23900", "state": null, "country": "Italy"}, "ranking": {"current_rank": 8, "total": 22}, "featured_image": null, "latitude": 45.82392, "longitude": 9.41928, "amenities": ["Free Wifi", "Breakfast included", "Pets Allowed"], "providers": ["Booking.com"]}, {"id": 8018378, "name": "B&B Casa Fortuna", "link": "https://www.tripadvisor.com/Hotel_Review-g187836-d8018378-Reviews-B_B_Casa_Fortuna-Lecco_Province_of_Lecco_Lombardy.html", "reviews": 16, "rating": 5, "price_range_usd": {"min": 85, "max": 86}, "phone": null, "address": "Via San Francesco d'Assisi 11, 23900 Lecco Italy", "detailed_address": {"street": "Via San Francesco d'Assisi 11", "city": "Lecco", "postal_code": "23900", "state": null, "country": "Italy"}, "ranking": {"current_rank": 1, "total": 25}, "featured_image": null, "latitude": 45.84979, "longitude": 9.38932, "amenities": ["Free Wifi", "Airport transportation", "Pets Allowed"], "providers": ["Booking.com"]}, {"id": 15638796, "name": "Leonardo 35", "link": "https://www.tripadvisor.com/Hotel_Review-g187836-d15638796-Reviews-Leonardo_35-Lecco_Province_of_Lecco_Lombardy.html", "reviews": 1, "rating": 5, "price_range_usd": {"min": 141, "max": 187}, "phone": null, "address": "Via Leonardo da Vinci 35, 23900 Lecco Italy", "detailed_address": {"street": "Via Leonardo da Vinci 35", "city": "Lecco", "postal_code": "23900", "state": null, "country": "Italy"}, "ranking": {"current_rank": 13, "total": 25}, "featured_image": null, "latitude": 45.85093, "longitude": 9.38846, "amenities": [], "providers": ["Booking.com"]}, {"id": 10509813, "name": "Bed & Breakfast Pescarenico", "link": "https://www.tripadvisor.com/Hotel_Review-g187836-d10509813-Reviews-Bed_Breakfast_Pescarenico-Lecco_Province_of_Lecco_Lombardy.html", "reviews": 18, "rating": 5, "price_range_usd": {"min": null, "max": null}, "phone": "+39 0341 283670", "address": "Via Giambattista Vico 11, 23900 Lecco Italy", "detailed_address": {"street": "Via Giambattista Vico 11", "city": "Lecco", "postal_code": "23900", "state": null, "country": "Italy"}, "ranking": {"current_rank": 10, "total": 22}, "featured_image": null, "latitude": 45.84534, "longitude": 9.40167, "amenities": ["Free Wifi", "Free parking", "Breakfast included"], "providers": ["Priceline"]}, {"id": 15221357, "name": "Casa Amata", "link": "https://www.tripadvisor.com/Hotel_Review-g187836-d15221357-Reviews-Casa_Amata-Lecco_Province_of_Lecco_Lombardy.html", "reviews": 3, "rating": 5, "price_range_usd": {"min": 132, "max": 134}, "phone": null, "address": "Via Roma 45, 23900 Lecco Italy", "detailed_address": {"street": "Via Roma 45", "city": "Lecco", "postal_code": "23900", "state": null, "country": "Italy"}, "ranking": {"current_rank": 11, "total": 25}, "featured_image": null, "latitude": 45.85346, "longitude": 9.39053, "amenities": ["Free Wifi", "Free parking"], "providers": ["Booking.com"]}, {"id": 1464307, "name": "alla Bonacina bed and breakfast", "link": "https://www.tripadvisor.com/Hotel_Review-g187836-d1464307-Reviews-Alla_Bonacina_bed_and_breakfast-Lecco_Province_of_Lecco_Lombardy.html", "reviews": 38, "rating": 4.5, "price_range_usd": {"min": null, "max": null}, "phone": "+39 0341 494355", "address": "San Egidio 1, 23900 Lecco Italy", "detailed_address": {"street": "San Egidio 1", "city": "Lecco", "postal_code": "23900", "state": null, "country": "Italy"}, "ranking": {"current_rank": 9, "total": 22}, "featured_image": null, "latitude": 45.86801, "longitude": 9.41905, "amenities": ["Free Wifi", "Free parking", "Breakfast included", "Pool", "Airport transportation"], "providers": ["Booking.com"]}, {"id": 15640943, "name": "Le Casette Di Osvaldo", "link": "https://www.tripadvisor.com/Hotel_Review-g187836-d15640943-Reviews-Le_Casette_Di_Osvaldo-Lecco_Province_of_Lecco_Lombardy.html", "reviews": 2, "rating": 4.5, "price_range_usd": {"min": 78, "max": 124}, "phone": "+39 02 1402 40132", "address": "Via Antonio Mascari 15, 23900 Lecco Italy", "detailed_address": {"street": "Via Antonio Mascari 15", "city": "Lecco", "postal_code": "23900", "state": null, "country": "Italy"}, "ranking": {"current_rank": 12, "total": 25}, "featured_image": null, "latitude": 45.85619, "longitude": 9.38955, "amenities": ["Free Wifi"], "providers": ["Booking.com"]}, {"id": 15631971, "name": "Artdeco 7", "link": "https://www.tripadvisor.com/Hotel_Review-g187836-d15631971-Reviews-Artdeco_7-Lecco_Province_of_Lecco_Lombardy.html", "reviews": 6, "rating": 3.5, "price_range_usd": {"min": 94, "max": 121}, "phone": "+39 366 230 8719", "address": "Via Pescatori 7, 23900 Lecco Italy", "detailed_address": {"street": "Via Pescatori 7", "city": "Lecco", "postal_code": "23900", "state": null, "country": "Italy"}, "ranking": {"current_rank": 15, "total": 25}, "featured_image": null, "latitude": 45.84496, "longitude": 9.39846, "amenities": [], "providers": ["Booking.com"]}, {"id": 3364214, "name": "Affittacamere Solosonno", "link": "https://www.tripadvisor.com/Hotel_Review-g187836-d3364214-Reviews-Affittacamere_Solosonno-Lecco_Province_of_Lecco_Lombardy.html", "reviews": 42, "rating": 3.5, "price_range_usd": {"min": 81, "max": 102}, "phone": "+39 333 478 1888", "address": "Via Lazzaretto 14, 23900 Lecco Italy", "detailed_address": {"street": "Via Lazzaretto 14", "city": "Lecco", "postal_code": "23900", "state": null, "country": "Italy"}, "ranking": {"current_rank": 14, "total": 22}, "featured_image": null, "latitude": 45.85013, "longitude": 9.38909, "amenities": ["Free Wifi", "Airport transportation"], "providers": ["Booking.com"]}]}, "error": null}