{"data": {"link": "https://www.tripadvisor.com/Hotels-g187870-oa60-Venice_Veneto-Hotels.html", "total_pages": 49, "current_page": 3, "total_items_count": 1467, "items_count": 30, "results": [{"id": 5773615, "name": "Hotel Sant'Antonin", "link": "https://www.tripadvisor.com/Hotel_Review-g187870-d5773615-Reviews-Hotel_Sant_Antonin-Venice_Veneto.html", "reviews": 1481, "rating": 4.5, "price_range_usd": {"min": 68, "max": 234}, "phone": "+39 041 523 1621", "address": "Castello, Fondamenta Furlani 3299 Fondamenta Dei Furlani, 30122 Venice Italy", "detailed_address": {"street": "Castello, Fondamenta Furlani 3299, Fondamenta Dei Furlani", "city": "Venice", "postal_code": "30122", "state": null, "country": "Italy"}, "ranking": {"current_rank": 60, "total": 366}, "featured_image": null, "latitude": 45.435818, "longitude": 12.346166, "amenities": ["Free Wifi", "Breakfast included", "Restaurant", "Room service", "Bar/Lounge"], "providers": []}, {"id": 1412372, "name": "Dimora Marciana", "link": "https://www.tripadvisor.com/Hotel_Review-g187870-d1412372-Reviews-Dimora_Marciana-Venice_Veneto.html", "reviews": 529, "rating": 4.5, "price_range_usd": {"min": 111, "max": 257}, "phone": "+39 041 522 0755", "address": "Calle de le Piere Vive Bognolo 1604, 30124 Venice Italy", "detailed_address": {"street": "Calle de le Piere Vive, Bognolo 1604", "city": "Venice", "postal_code": "30124", "state": null, "country": "Italy"}, "ranking": {"current_rank": 29, "total": 479}, "featured_image": null, "latitude": 45.433903, "longitude": 12.336141, "amenities": ["Free Wifi", "Breakfast included"], "providers": []}, {"id": 256010, "name": "Sina Palazzo Sant'angelo", "link": "https://www.tripadvisor.com/Hotel_Review-g187870-d256010-Reviews-Sina_Palazzo_Sant_angelo-Venice_Veneto.html", "reviews": 1083, "rating": 4.5, "price_range_usd": {"min": 265, "max": 495}, "phone": "+39 041 241 1452", "address": "San Marco 3878B, 30124 Venice Italy", "detailed_address": {"street": "San Marco 3878B", "city": "Venice", "postal_code": "30124", "state": null, "country": "Italy"}, "ranking": {"current_rank": 31, "total": 366}, "featured_image": null, "latitude": 45.43533, "longitude": 12.330066, "amenities": ["Free Wifi", "Breakfast included", "Airport transportation", "Room service", "Pets Allowed"], "providers": []}, {"id": 239486, "name": "Hotel Marconi", "link": "https://www.tripadvisor.com/Hotel_Review-g187870-d239486-Reviews-Hotel_Marconi-Venice_Veneto.html", "reviews": 871, "rating": 4, "price_range_usd": {"min": 101, "max": 278}, "phone": "+39 041 522 2068", "address": "Riva del Vin, San Polo, 729, 30125 Venice Italy", "detailed_address": {"street": "Riva del Vin, San Polo, 729", "city": "Venice", "postal_code": "30125", "state": null, "country": "Italy"}, "ranking": {"current_rank": 194, "total": 366}, "featured_image": null, "latitude": 45.43812, "longitude": 12.335056, "amenities": ["Free Wifi", "Breakfast included", "Pets Allowed"], "providers": []}, {"id": 23372191, "name": "Radisson Collection Hotel, Palazzo Nani Venice", "link": "https://www.tripadvisor.com/Hotel_Review-g187870-d23372191-Reviews-Radisson_Collection_Hotel_Palazzo_Nani_Venice-Venice_Veneto.html", "reviews": 201, "rating": 5, "price_range_usd": {"min": 298, "max": 558}, "phone": "+39 041 884 2200", "address": "Fondamenta Cannaregio 1105, 30121 Venice Italy", "detailed_address": {"street": "Fondamenta Cannaregio 1105", "city": "Venice", "postal_code": "30121", "state": null, "country": "Italy"}, "ranking": {"current_rank": 38, "total": 366}, "featured_image": null, "latitude": 45.44453, "longitude": 12.324591, "amenities": ["Free Wifi", "Breakfast included", "Restaurant", "Airport transportation", "Room service"], "providers": []}, {"id": 194256, "name": "Hotel Danieli Venice", "link": "https://www.tripadvisor.com/Hotel_Review-g187870-d194256-Reviews-Hotel_Danieli_Venice-Venice_Veneto.html", "reviews": 4165, "rating": 4.5, "price_range_usd": {"min": 723, "max": 1307}, "phone": "+39 041 522 6480", "address": "Riva degli Schiavoni, 4196, 30122 Venice Italy", "detailed_address": {"street": "Riva degli Schiavoni, 4196", "city": "Venice", "postal_code": "30122", "state": null, "country": "Italy"}, "ranking": {"current_rank": 143, "total": 366}, "featured_image": null, "latitude": 45.43391, "longitude": 12.342126, "amenities": ["Free Wifi", "Restaurant", "Airport transportation", "Room service", "Bar/Lounge"], "providers": []}, {"id": 15618675, "name": "Riva Del Vin Boutique Hotel", "link": "https://www.tripadvisor.com/Hotel_Review-g187870-d15618675-Reviews-Riva_Del_Vin_Boutique_Hotel-Venice_Veneto.html", "reviews": 157, "rating": 4.5, "price_range_usd": {"min": 124, "max": 258}, "phone": "+39 041 523 6718", "address": "Calle del Sturion, 677/A-678 San Polo, 30125 Venice Italy", "detailed_address": {"street": "Calle del Sturion, 677/A-678, San Polo", "city": "Venice", "postal_code": "30125", "state": null, "country": "Italy"}, "ranking": {"current_rank": 129, "total": 366}, "featured_image": null, "latitude": 45.437695, "longitude": 12.334347, "amenities": ["Free Wifi", "Breakfast included", "Pets Allowed"], "providers": []}, {"id": 15811987, "name": "Hotel Aquarius", "link": "https://www.tripadvisor.com/Hotel_Review-g187870-d15811987-Reviews-Hotel_Aquarius-Venice_Veneto.html", "reviews": 217, "rating": 5, "price_range_usd": {"min": 122, "max": 334}, "phone": "+39 041 866 0112", "address": "Campo San Giacomo dell'Orio 1624 Santa Croce 1624, 30135 Venice Italy", "detailed_address": {"street": "Campo San Giacomo dell'Orio 1624, Santa Croce 1624", "city": "Venice", "postal_code": "30135", "state": null, "country": "Italy"}, "ranking": {"current_rank": 41, "total": 366}, "featured_image": null, "latitude": 45.440357, "longitude": 12.328118, "amenities": ["Free Wifi", "Breakfast included", "Bar/Lounge"], "providers": []}, {"id": 7179516, "name": "JW Marriott Venice Resort & Spa", "link": "https://www.tripadvisor.com/Hotel_Review-g187870-d7179516-Reviews-JW_Marriott_Venice_Resort_Spa-Venice_Veneto.html", "reviews": 2510, "rating": 4.5, "price_range_usd": {"min": 357, "max": 630}, "phone": "+39 041 852 1300", "address": "Isola Delle Rose, Laguna Di San Marco, 30133 Venice Italy", "detailed_address": {"street": "Isola Delle Rose, Laguna Di San Marco", "city": "Venice", "postal_code": "30133", "state": null, "country": "Italy"}, "ranking": {"current_rank": 107, "total": 366}, "featured_image": null, "latitude": 45.405216, "longitude": 12.319539, "amenities": ["Pool", "Heated pool", "Outdoor pool", "Restaurant", "Airport transportation"], "providers": []}, {"id": 202711, "name": "Hotel American-Dinesen", "link": "https://www.tripadvisor.com/Hotel_Review-g187870-d202711-Reviews-Hotel_American_Dinesen-Venice_Veneto.html", "reviews": 2231, "rating": 4.5, "price_range_usd": {"min": 134, "max": 331}, "phone": "+39 041 520 4733", "address": "Campo San Vio 628 Dorsoduro, 30123 Venice Italy", "detailed_address": {"street": "Campo San Vio 628, Dorsoduro", "city": "Venice", "postal_code": "30123", "state": null, "country": "Italy"}, "ranking": {"current_rank": 28, "total": 366}, "featured_image": null, "latitude": 45.43023, "longitude": 12.329649, "amenities": ["Free Wifi", "Room service", "Bar/Lounge"], "providers": []}, {"id": 202733, "name": "Hotel Bisanzio", "link": "https://www.tripadvisor.com/Hotel_Review-g187870-d202733-Reviews-Hotel_Bisanzio-Venice_Veneto.html", "reviews": 1060, "rating": 4.5, "price_range_usd": {"min": 97, "max": 307}, "phone": "+39 041 520 3100", "address": "Calle De La Pieta, 3651, 30122 Venice Italy", "detailed_address": {"street": "Calle De La Pieta, 3651", "city": "Venice", "postal_code": "30122", "state": null, "country": "Italy"}, "ranking": {"current_rank": 122, "total": 366}, "featured_image": null, "latitude": 45.434765, "longitude": 12.345103, "amenities": ["Free Wifi", "Breakfast included", "Bar/Lounge"], "providers": []}, {"id": 237415, "name": "Arcadia Boutique Hotel", "link": "https://www.tripadvisor.com/Hotel_Review-g187870-d237415-Reviews-Arcadia_Boutique_Hotel-Venice_Veneto.html", "reviews": 1486, "rating": 5, "price_range_usd": {"min": 131, "max": 343}, "phone": "+39 041 717355", "address": "Rio Tera San Leonardo 1333 Cannaregio, 30121 Venice Italy", "detailed_address": {"street": "Rio Tera San Leonardo, 1333 Cannaregio", "city": "Venice", "postal_code": "30121", "state": null, "country": "Italy"}, "ranking": {"current_rank": 43, "total": 366}, "featured_image": null, "latitude": 45.44374, "longitude": 12.326506, "amenities": ["Free Wifi", "Breakfast included", "Bar/Lounge"], "providers": []}, {"id": 488758, "name": "Hotel Dona Palace", "link": "https://www.tripadvisor.com/Hotel_Review-g187870-d488758-Reviews-Hotel_Dona_Palace-Venice_Veneto.html", "reviews": 2227, "rating": 4.5, "price_range_usd": {"min": 163, "max": 372}, "phone": "+39 041 520 2089", "address": "San Marco 391, 30124 Venice Italy", "detailed_address": {"street": "San Marco 391", "city": "Venice", "postal_code": "30124", "state": null, "country": "Italy"}, "ranking": {"current_rank": 27, "total": 366}, "featured_image": null, "latitude": 45.435493, "longitude": 12.340175, "amenities": ["Free Wifi", "Airport transportation", "Room service", "Bar/Lounge"], "providers": []}, {"id": 230426, "name": "Hotel Carlton Capri", "link": "https://www.tripadvisor.com/Hotel_Review-g187870-d230426-Reviews-Hotel_Carlton_Capri-Venice_Veneto.html", "reviews": 828, "rating": 4, "price_range_usd": {"min": 59, "max": 224}, "phone": "+39 041 275 2300", "address": "Santa Croce 595, 30135 Venice Italy", "detailed_address": {"street": "Santa Croce 595", "city": "Venice", "postal_code": "30135", "state": null, "country": "Italy"}, "ranking": {"current_rank": 177, "total": 366}, "featured_image": null, "latitude": 45.439003, "longitude": 12.322228, "amenities": ["Free Wifi", "Breakfast included", "Restaurant", "Room service", "Bar/Lounge"], "providers": []}, {"id": 614361, "name": "Hotel a La Commedia", "link": "https://www.tripadvisor.com/Hotel_Review-g187870-d614361-Reviews-Hotel_a_La_Commedia-Venice_Veneto.html", "reviews": 2687, "rating": 4.5, "price_range_usd": {"min": 129, "max": 351}, "phone": "+39 041 277 0235", "address": "San Marco 4596/A Corte Del Teatro Goldoni, 30124 Venice Italy", "detailed_address": {"street": "San Marco 4596/A, Corte Del Teatro Goldoni", "city": "Venice", "postal_code": "30124", "state": null, "country": "Italy"}, "ranking": {"current_rank": 32, "total": 366}, "featured_image": null, "latitude": 45.43618, "longitude": 12.334817, "amenities": ["Free Wifi", "Breakfast included", "Room service", "Bar/Lounge"], "providers": []}, {"id": 239603, "name": "Locanda Casa Martini", "link": "https://www.tripadvisor.com/Hotel_Review-g187870-d239603-Reviews-Locanda_Casa_Martini-Venice_Veneto.html", "reviews": 184, "rating": 4.5, "price_range_usd": {"min": 89, "max": 192}, "phone": "+39 041 717512", "address": "Rio Terra San Leonardo 1314, 30121 Venice Italy", "detailed_address": {"street": "Rio Terra San Leonardo 1314", "city": "Venice", "postal_code": "30121", "state": null, "country": "Italy"}, "ranking": {"current_rank": 37, "total": 479}, "featured_image": null, "latitude": 45.44379, "longitude": 12.32621, "amenities": ["Free Wifi", "Breakfast included", "Pets Allowed"], "providers": []}, {"id": 571526, "name": "Ca' dei Dogi", "link": "https://www.tripadvisor.com/Hotel_Review-g187870-d571526-Reviews-Ca_dei_Dogi-Venice_Veneto.html", "reviews": 999, "rating": 4.5, "price_range_usd": {"min": 117, "max": 260}, "phone": "+39 041 241 3751", "address": "Corte Santa Scolastica Castello 4242, 30122 Venice Italy", "detailed_address": {"street": "Corte Santa Scolastica, Castello 4242", "city": "Venice", "postal_code": "30122", "state": null, "country": "Italy"}, "ranking": {"current_rank": 61, "total": 366}, "featured_image": null, "latitude": 45.434334, "longitude": 12.341184, "amenities": ["Free Wifi", "Breakfast included"], "providers": []}, {"id": 324201, "name": "Hotel Rio", "link": "https://www.tripadvisor.com/Hotel_Review-g187870-d324201-Reviews-Hotel_Rio-Venice_Veneto.html", "reviews": 630, "rating": 4.5, "price_range_usd": {"min": 64, "max": 201}, "phone": "+39 041 520 8222", "address": "Castello 4358 Campo SS. Filippo e Giacomo, 30122 Venice Italy", "detailed_address": {"street": "Castello 4358, Campo SS. Filippo e Giacomo", "city": "Venice", "postal_code": "30122", "state": null, "country": "Italy"}, "ranking": {"current_rank": 136, "total": 366}, "featured_image": null, "latitude": 45.43519, "longitude": 12.341461, "amenities": ["Free Wifi"], "providers": []}, {"id": 235889, "name": "Hotel Paganelli", "link": "https://www.tripadvisor.com/Hotel_Review-g187870-d235889-Reviews-Hotel_Paganelli-Venice_Veneto.html", "reviews": 1345, "rating": 4, "price_range_usd": {"min": 90, "max": 245}, "phone": "+39 041 522 4324", "address": "Riva Dei Schiavoni Castello 4182, 30122 Venice Italy", "detailed_address": {"street": "Riva Dei Schiavoni Castello 4182", "city": "Venice", "postal_code": "30122", "state": null, "country": "Italy"}, "ranking": {"current_rank": 146, "total": 366}, "featured_image": null, "latitude": 45.43409, "longitude": 12.343081, "amenities": ["Free Wifi", "Breakfast included", "Restaurant", "Bar/Lounge"], "providers": []}, {"id": 202684, "name": "Hotel Papadopoli Venezia - MGallery", "link": "https://www.tripadvisor.com/Hotel_Review-g187870-d202684-Reviews-Hotel_Papadopoli_Venezia_MGallery-Venice_Veneto.html", "reviews": 3039, "rating": 4.5, "price_range_usd": {"min": 194, "max": 382}, "phone": "+39 041 710400", "address": "Via Santa Croce 245 Giardini Papadopoli, 30135 Venice Italy", "detailed_address": {"street": "Via Santa Croce 245, Giardini Papadopoli", "city": "Venice", "postal_code": "30135", "state": null, "country": "Italy"}, "ranking": {"current_rank": 51, "total": 366}, "featured_image": null, "latitude": 45.438114, "longitude": 12.321218, "amenities": ["Free Wifi", "Restaurant", "Airport transportation", "Room service", "Bar/Lounge"], "providers": []}, {"id": 4045226, "name": "Aqua B", "link": "https://www.tripadvisor.com/Hotel_Review-g187870-d4045226-Reviews-Aqua_B-Venice_Veneto.html", "reviews": 207, "rating": 5, "price_range_usd": {"min": 101, "max": 274}, "phone": "+39 041 241 3434", "address": "Ramo Licini 5504 Castello, 30122 Venice Italy", "detailed_address": {"street": "Ramo Licini 5504, Castello", "city": "Venice", "postal_code": "30122", "state": null, "country": "Italy"}, "ranking": {"current_rank": 19, "total": 479}, "featured_image": null, "latitude": 45.436695, "longitude": 12.338374, "amenities": ["Free Wifi", "Breakfast included", "Airport transportation", "Room service"], "providers": []}, {"id": 6575857, "name": "Combo, Venezia", "link": "https://www.tripadvisor.com/Hotel_Review-g187870-d6575857-Reviews-Combo_Venezia-Venice_Veneto.html", "reviews": 404, "rating": 4.5, "price_range_usd": {"min": 123, "max": 192}, "phone": "+39 041 528 6103", "address": "Campo Dei Gesuiti Cannaregio 4878, 30121 Venice Italy", "detailed_address": {"street": "Campo Dei Gesuiti Cannaregio 4878", "city": "Venice", "postal_code": "30121", "state": null, "country": "Italy"}, "ranking": {"current_rank": 10, "total": 340}, "featured_image": null, "latitude": 45.443157, "longitude": 12.338686, "amenities": ["Restaurant", "Bar/Lounge"], "providers": []}, {"id": 234376, "name": "Hotel Tintoretto", "link": "https://www.tripadvisor.com/Hotel_Review-g187870-d234376-Reviews-Hotel_Tintoretto-Venice_Veneto.html", "reviews": 680, "rating": 3.5, "price_range_usd": {"min": 69, "max": 210}, "phone": "+39 041 721522", "address": "Cannaregio, 2316, 30121 Venice Italy", "detailed_address": {"street": "Cannaregio, 2316", "city": "Venice", "postal_code": "30121", "state": null, "country": "Italy"}, "ranking": {"current_rank": 193, "total": 366}, "featured_image": null, "latitude": 45.442883, "longitude": 12.332417, "amenities": ["Free Wifi", "Breakfast included", "Restaurant"], "providers": []}, {"id": 25365451, "name": "Nolinski Venezia Evok Collection", "link": "https://www.tripadvisor.com/Hotel_Review-g187870-d25365451-Reviews-Nolinski_Venezia_Evok_Collection-Venice_Veneto.html", "reviews": 39, "rating": 5, "price_range_usd": {"min": 576, "max": 914}, "phone": "+39 041 406 2459", "address": "Calle Larga XXII Marzo, 2032, 30124 Venice Italy", "detailed_address": {"street": "Calle Larga XXII Marzo, 2032", "city": "Venice", "postal_code": "30124", "state": null, "country": "Italy"}, "ranking": {"current_rank": 181, "total": 366}, "featured_image": null, "latitude": 45.432972, "longitude": 12.334648, "amenities": ["Free Wifi", "Pool", "Heated pool", "Indoor pool", "Restaurant"], "providers": []}, {"id": 286614, "name": "Palazzo Barocci", "link": "https://www.tripadvisor.com/Hotel_Review-g187870-d286614-Reviews-Palazzo_Barocci-Venice_Veneto.html", "reviews": 1722, "rating": 4.5, "price_range_usd": {"min": 180, "max": 402}, "phone": "+39 041 296 0650", "address": "Corte de l'Albero, 3878/A, 30124 Venice Italy", "detailed_address": {"street": "Corte de l'Albero, 3878/A", "city": "Venice", "postal_code": "30124", "state": null, "country": "Italy"}, "ranking": {"current_rank": 86, "total": 366}, "featured_image": null, "latitude": 45.43537, "longitude": 12.330339, "amenities": ["Free Wifi", "Airport transportation", "Room service", "Pets Allowed", "Bar/Lounge"], "providers": []}, {"id": 235821, "name": "Pensione Accademia - Villa Maravege", "link": "https://www.tripadvisor.com/Hotel_Review-g187870-d235821-Reviews-Pensione_Accademia_Villa_Maravege-Venice_Veneto.html", "reviews": 849, "rating": 4.5, "price_range_usd": {"min": 116, "max": 249}, "phone": "+39 041 521 0188", "address": "Fondamenta Bollani 1058 Dorsoduro, 30123 Venice Italy", "detailed_address": {"street": "Fondamenta Bollani 1058, Dorsoduro", "city": "Venice", "postal_code": "30123", "state": null, "country": "Italy"}, "ranking": {"current_rank": 45, "total": 366}, "featured_image": null, "latitude": 45.432076, "longitude": 12.327063, "amenities": ["Free Wifi", "Breakfast included", "Bar/Lounge"], "providers": []}, {"id": 286556, "name": "Eurostars Residenza Cannaregio", "link": "https://www.tripadvisor.com/Hotel_Review-g187870-d286556-Reviews-Eurostars_Residenza_Cannaregio-Venice_Veneto.html", "reviews": 1185, "rating": 4, "price_range_usd": {"min": 87, "max": 248}, "phone": "+39 041 524 4332", "address": "Calle dei Riformati 3210/A Cannaregio, 30121 Venice Italy", "detailed_address": {"street": "Calle dei Riformati 3210/A, Cannaregio", "city": "Venice", "postal_code": "30121", "state": null, "country": "Italy"}, "ranking": {"current_rank": 186, "total": 366}, "featured_image": null, "latitude": 45.44735, "longitude": 12.327033, "amenities": ["Free Wifi", "Airport transportation", "Bar/Lounge"], "providers": []}, {"id": 907563, "name": "Maison Venezia UNA Esperienze", "link": "https://www.tripadvisor.com/Hotel_Review-g187870-d907563-Reviews-Maison_Venezia_UNA_Esperienze-Venice_Veneto.html", "reviews": 1525, "rating": 4.5, "price_range_usd": {"min": 126, "max": 274}, "phone": "+39 041 244 2711", "address": "Ruga do Pozzi 4173 Cannaregio, 30121 Venice Italy", "detailed_address": {"street": "Ruga do Pozzi 4173, Cannaregio", "city": "Venice", "postal_code": "30121", "state": null, "country": "Italy"}, "ranking": {"current_rank": 80, "total": 366}, "featured_image": null, "latitude": 45.441807, "longitude": 12.336108, "amenities": ["Free Wifi", "Pets Allowed"], "providers": []}, {"id": 202693, "name": "The St. Regis Venice", "link": "https://www.tripadvisor.com/Hotel_Review-g187870-d202693-Reviews-The_St_Regis_Venice-Venice_Veneto.html", "reviews": 395, "rating": 4.5, "price_range_usd": {"min": 984, "max": 1570}, "phone": "+39 041 240 0001", "address": "San Marco 2159, 30124 Venice Italy", "detailed_address": {"street": "San Marco 2159", "city": "Venice", "postal_code": "30124", "state": null, "country": "Italy"}, "ranking": {"current_rank": 57, "total": 366}, "featured_image": null, "latitude": 45.431934, "longitude": 12.33549, "amenities": ["Free Wifi", "Restaurant", "Airport transportation", "Room service", "Bar/Lounge"], "providers": []}, {"id": 3592374, "name": "Hotel Ai Reali di Venezia", "link": "https://www.tripadvisor.com/Hotel_Review-g187870-d3592374-Reviews-Hotel_Ai_Reali_di_Venezia-Venice_Veneto.html", "reviews": 1821, "rating": 4.5, "price_range_usd": {"min": 251, "max": 530}, "phone": "+39 041 241 0253", "address": "Castello, Campo Della Fava 5527, 30125 Venice Italy", "detailed_address": {"street": "Castello, Campo Della Fava 5527", "city": "Venice", "postal_code": "30125", "state": null, "country": "Italy"}, "ranking": {"current_rank": 69, "total": 366}, "featured_image": null, "latitude": 45.437218, "longitude": 12.33773, "amenities": ["Free Wifi", "Restaurant", "Room service", "Bar/Lounge", "Fitness center"], "providers": []}]}, "error": null}