{"data": {"link": "https://www.tripadvisor.com/Hotels-g187831-Cremona_Province_of_Cremona_Lombardy-Hotels.html", "total_pages": 2, "current_page": 1, "total_items_count": 45, "items_count": 30, "results": [{"id": 232908, "name": "B&B Hotel Cremona", "link": "https://www.tripadvisor.com/Hotel_Review-g187831-d232908-Reviews-B_B_Hotel_Cremona-Cremona_Province_of_Cremona_Lombardy.html", "reviews": 354, "rating": 4.5, "price_range_usd": {"min": 50, "max": 71}, "phone": "+39 0372 435262", "address": "Via Antiche Fornaci 70, 26100 Cremona Italy", "detailed_address": {"street": "Via Antiche Fornaci 70", "city": "Cremona", "postal_code": "26100", "state": null, "country": "Italy"}, "ranking": {"current_rank": 1, "total": 8}, "featured_image": null, "latitude": 45.13855, "longitude": 10.041025, "amenities": ["Free Wifi", "Pets Allowed"], "providers": ["Booking.com"]}, {"id": 289934, "name": "Hotel Impero", "link": "https://www.tripadvisor.com/Hotel_Review-g187831-d289934-Reviews-Hotel_Impero-Cremona_Province_of_Cremona_Lombardy.html", "reviews": 371, "rating": 3.5, "price_range_usd": {"min": 110, "max": 136}, "phone": "+39 0372 413013", "address": "Piazza della Pace 21, 26100 Cremona Italy", "detailed_address": {"street": "Piazza della Pace 21", "city": "Cremona", "postal_code": "26100", "state": null, "country": "Italy"}, "ranking": {"current_rank": 3, "total": 8}, "featured_image": null, "latitude": 45.13301, "longitude": 10.023292, "amenities": ["Free Wifi", "Pets Allowed"], "providers": ["Booking.com"]}, {"id": 1998693, "name": "Hotel Cremona", "link": "https://www.tripadvisor.com/Hotel_Review-g187831-d1998693-Reviews-Hotel_Cremona-Cremona_Province_of_Cremona_Lombardy.html", "reviews": 118, "rating": 3.5, "price_range_usd": {"min": 95, "max": 117}, "phone": "+39 0372 32220", "address": "Viale Po' 131, 26100 Cremona Italy", "detailed_address": {"street": "Viale Po' 131", "city": "Cremona", "postal_code": "26100", "state": null, "country": "Italy"}, "ranking": {"current_rank": 7, "total": 8}, "featured_image": null, "latitude": 45.13066, "longitude": 9.999861, "amenities": ["Free Wifi", "Free parking", "Breakfast included", "Room service", "Pets Allowed"], "providers": ["Booking.com"]}, {"id": 26656990, "name": "Foresteria Palazzo Guazzoni Zaccaria", "link": "https://www.tripadvisor.com/Hotel_Review-g187831-d26656990-Reviews-Foresteria_Palazzo_Guazzoni_Zaccaria-Cremona_Province_of_Cremona_Lombardy.html", "reviews": 5, "rating": 5, "price_range_usd": {"min": 143, "max": 164}, "phone": "+39 335 581 9849", "address": "60 Corso Pietro Vacchelli, 26100 Cremona Italy", "detailed_address": {"street": "60 Corso Pietro Vacchelli", "city": "Cremona", "postal_code": "26100", "state": null, "country": "Italy"}, "ranking": {"current_rank": 9, "total": 17}, "featured_image": null, "latitude": 45.1341, "longitude": 10.03265, "amenities": [], "providers": ["Booking.com"]}, {"id": 194159, "name": "Continental Hotel", "link": "https://www.tripadvisor.com/Hotel_Review-g187831-d194159-Reviews-Continental_Hotel-Cremona_Province_of_Cremona_Lombardy.html", "reviews": 337, "rating": 3.5, "price_range_usd": {"min": 131, "max": 139}, "phone": "+39 0372 434141", "address": "Piazza della Liberta' 26, 26100 Cremona Italy", "detailed_address": {"street": "Piazza della Liberta' 26", "city": "Cremona", "postal_code": "26100", "state": null, "country": "Italy"}, "ranking": {"current_rank": 4, "total": 8}, "featured_image": null, "latitude": 45.137093, "longitude": 10.031963, "amenities": ["Free Wifi", "Restaurant", "Room service", "Pets Allowed", "Bar/Lounge"], "providers": ["Booking.com"]}, {"id": 2099474, "name": "Casale Carrobbio", "link": "https://www.tripadvisor.com/Hotel_Review-g187831-d2099474-Reviews-Casale_Carrobbio-Cremona_Province_of_Cremona_Lombardy.html", "reviews": 116, "rating": 4.5, "price_range_usd": {"min": null, "max": null}, "phone": "+39 331 433 3797", "address": "Via Castelverde 54, 26100 Cremona Italy", "detailed_address": {"street": "Via Castelverde 54", "city": "Cremona", "postal_code": "26100", "state": null, "country": "Italy"}, "ranking": {"current_rank": 1, "total": 10}, "featured_image": null, "latitude": 45.171738, "longitude": 9.993533, "amenities": ["Free parking", "Breakfast included"], "providers": ["Priceline"]}, {"id": 8686903, "name": "Bed & Breakfast Il Torrazzo", "link": "https://www.tripadvisor.com/Hotel_Review-g187831-d8686903-Reviews-Bed_Breakfast_Il_Torrazzo-Cremona_Province_of_Cremona_Lombardy.html", "reviews": 39, "rating": 4.5, "price_range_usd": {"min": 86, "max": 107}, "phone": "+39 392 436 3833", "address": "Via della Torre 17, 26100 Cremona Italy", "detailed_address": {"street": "Via della Torre 17", "city": "Cremona", "postal_code": "26100", "state": null, "country": "Italy"}, "ranking": {"current_rank": 5, "total": 17}, "featured_image": null, "latitude": 45.13902, "longitude": 10.0117, "amenities": ["Free Wifi", "Free parking", "Breakfast included", "Room service"], "providers": ["Booking.com"]}, {"id": 252256, "name": "Delle Arti Design Hotel", "link": "https://www.tripadvisor.com/Hotel_Review-g187831-d252256-Reviews-Delle_Arti_Design_Hotel-Cremona_Province_of_Cremona_Lombardy.html", "reviews": 316, "rating": 4, "price_range_usd": {"min": 149, "max": 170}, "phone": "+39 0372 23131", "address": "Via Geremia Bonomelli 8, 26100 Cremona Italy", "detailed_address": {"street": "Via Geremia Bonomelli 8", "city": "Cremona", "postal_code": "26100", "state": null, "country": "Italy"}, "ranking": {"current_rank": 6, "total": 8}, "featured_image": null, "latitude": 45.132862, "longitude": 10.027111, "amenities": ["Free Wifi", "Breakfast included", "Airport transportation", "Room service", "Pets Allowed"], "providers": ["Booking.com"]}, {"id": 13803717, "name": "B&B La Bicicletta", "link": "https://www.tripadvisor.com/Hotel_Review-g187831-d13803717-Reviews-B_B_La_Bicicletta-Cremona_Province_of_Cremona_Lombardy.html", "reviews": 39, "rating": 5, "price_range_usd": {"min": 91, "max": 116}, "phone": "+39 339 101 6893", "address": "Via Emanuele Sardagna 7, 26100 Cremona Italy", "detailed_address": {"street": "Via Emanuele Sardagna 7", "city": "Cremona", "postal_code": "26100", "state": null, "country": "Italy"}, "ranking": {"current_rank": 1, "total": 17}, "featured_image": null, "latitude": 45.1477, "longitude": 10.03255, "amenities": ["Free Wifi", "Pets Allowed"], "providers": ["Booking.com"]}, {"id": 3146562, "name": "Dimora Della Gran Farnia", "link": "https://www.tripadvisor.com/Hotel_Review-g187831-d3146562-Reviews-Dimora_Della_Gran_Farnia-Cremona_Province_of_Cremona_Lombardy.html", "reviews": 21, "rating": 4, "price_range_usd": {"min": null, "max": null}, "phone": "+39 331 960 4386", "address": "SS 10 N 2 Castelvetro Mezzano Chitantolo, 29010 Cremona Italy", "detailed_address": {"street": "SS 10 N 2 Castelvetro, Mezzano Chitantolo", "city": "Cremona", "postal_code": "29010", "state": null, "country": "Italy"}, "ranking": {"current_rank": 11, "total": 17}, "featured_image": null, "latitude": 45.1132, "longitude": 9.9952, "amenities": ["Free Wifi", "Free parking", "Pets Allowed"], "providers": ["Booking.com"]}, {"id": 2289011, "name": "Locanda Torriani", "link": "https://www.tripadvisor.com/Hotel_Review-g187831-d2289011-Reviews-Locanda_Torriani-Cremona_Province_of_Cremona_Lombardy.html", "reviews": 68, "rating": 4.5, "price_range_usd": {"min": null, "max": null}, "phone": "+39 0372 30017", "address": "Via Janello Torriani 7, 26100 Cremona Italy", "detailed_address": {"street": "Via Janello Torriani 7", "city": "Cremona", "postal_code": "26100", "state": null, "country": "Italy"}, "ranking": {"current_rank": 3, "total": 10}, "featured_image": null, "latitude": 45.134525, "longitude": 10.025347, "amenities": ["Free Wifi", "Breakfast included", "Restaurant", "Pets Allowed", "Bar/Lounge"], "providers": ["Expedia.com"]}, {"id": 2427974, "name": "Bed & Breakfast Il Violino", "link": "https://www.tripadvisor.com/Hotel_Review-g187831-d2427974-Reviews-Bed_Breakfast_Il_Violino-Cremona_Province_of_Cremona_Lombardy.html", "reviews": 29, "rating": 4.5, "price_range_usd": {"min": 104, "max": 125}, "phone": "+39 335 724 2531", "address": "Via Francesco Arisi 3, 26100 Cremona Italy", "detailed_address": {"street": "Via Francesco Arisi 3", "city": "Cremona", "postal_code": "26100", "state": null, "country": "Italy"}, "ranking": {"current_rank": 7, "total": 17}, "featured_image": null, "latitude": 45.13605, "longitude": 10.02166, "amenities": ["Free Wifi", "Breakfast included"], "providers": ["Agoda.com"]}, {"id": 1469203, "name": "Albergo Visconti", "link": "https://www.tripadvisor.com/Hotel_Review-g187831-d1469203-Reviews-Albergo_Visconti-Cremona_Province_of_Cremona_Lombardy.html", "reviews": 339, "rating": 4, "price_range_usd": {"min": 87, "max": 94}, "phone": "+39 0372 431891", "address": "Via Giuseppina 145, 26100 Cremona Italy", "detailed_address": {"street": "Via Giuseppina 145", "city": "Cremona", "postal_code": "26100", "state": null, "country": "Italy"}, "ranking": {"current_rank": 2, "total": 8}, "featured_image": null, "latitude": 45.12681, "longitude": 10.054098, "amenities": ["Free Wifi", "Breakfast included", "Pets Allowed"], "providers": ["Booking.com"]}, {"id": 27940965, "name": "Locanda del Centrale", "link": "https://www.tripadvisor.com/Hotel_Review-g187831-d27940965-Reviews-Locanda_del_Centrale-Cremona_Province_of_Cremona_Lombardy.html", "reviews": 1, "rating": 5, "price_range_usd": {"min": 152, "max": 155}, "phone": null, "address": "4 Vicolo Pertusio, 26100 Cremona Italy", "detailed_address": {"street": "4 Vicolo Pertusio", "city": "Cremona", "postal_code": "26100", "state": null, "country": "Italy"}, "ranking": {"current_rank": 16, "total": 17}, "featured_image": null, "latitude": 45.134792, "longitude": 10.02467, "amenities": [], "providers": ["Booking.com"]}, {"id": 4324150, "name": "Ostello l'Archetto", "link": "https://www.tripadvisor.com/Hotel_Review-g187831-d4324150-Reviews-Ostello_l_Archetto-Cremona_Province_of_Cremona_Lombardy.html", "reviews": 72, "rating": 4.5, "price_range_usd": {"min": 67, "max": 75}, "phone": "+39 0372 807755", "address": "Via Brescia' 9, 26100 Cremona Italy", "detailed_address": {"street": "Via Brescia' 9", "city": "Cremona", "postal_code": "26100", "state": null, "country": "Italy"}, "ranking": {"current_rank": 2, "total": 10}, "featured_image": null, "latitude": 45.13783, "longitude": 10.03209, "amenities": ["Free Wifi", "Pets Allowed"], "providers": ["Booking.com"]}, {"id": 25697652, "name": "Palazzo Glori 6", "link": "https://www.tripadvisor.com/Hotel_Review-g187831-d25697652-Reviews-Palazzo_Glori_6-Cremona_Province_of_Cremona_Lombardy.html", "reviews": 12, "rating": 4.5, "price_range_usd": {"min": 148, "max": 191}, "phone": "+39 349 169 2337", "address": "6 Via Villa Glori, 26100 Cremona Italy", "detailed_address": {"street": "6 Via Villa Glori", "city": "Cremona", "postal_code": "26100", "state": null, "country": "Italy"}, "ranking": {"current_rank": 6, "total": 17}, "featured_image": null, "latitude": 45.13739, "longitude": 10.01837, "amenities": ["Free Wifi"], "providers": ["Booking.com"]}, {"id": 13166773, "name": "Residenza Solferino", "link": "https://www.tripadvisor.com/Hotel_Review-g187831-d13166773-Reviews-Residenza_Solferino-Cremona_Province_of_Cremona_Lombardy.html", "reviews": 12, "rating": 4.5, "price_range_usd": {"min": 91, "max": 108}, "phone": "+39 392 601 6767", "address": "Via Solferino 22, 26100 Cremona Italy", "detailed_address": {"street": "Via Solferino 22", "city": "Cremona", "postal_code": "26100", "state": null, "country": "Italy"}, "ranking": {"current_rank": 6, "total": 10}, "featured_image": null, "latitude": 45.13445, "longitude": 10.02459, "amenities": [], "providers": ["Booking.com"]}, {"id": 194162, "name": "Hotel Duomo", "link": "https://www.tripadvisor.com/Hotel_Review-g187831-d194162-Reviews-Hotel_Duomo-Cremona_Province_of_Cremona_Lombardy.html", "reviews": 324, "rating": 3.5, "price_range_usd": {"min": 117, "max": 136}, "phone": "+39 0372 35242", "address": "Via Dei Gonfalonieri 13, 26100 Cremona Italy", "detailed_address": {"street": "Via Dei Gonfalonieri 13", "city": "Cremona", "postal_code": "26100", "state": null, "country": "Italy"}, "ranking": {"current_rank": 5, "total": 8}, "featured_image": null, "latitude": 45.133266, "longitude": 10.024181, "amenities": ["Free Wifi", "Restaurant", "Pets Allowed", "Bar/Lounge"], "providers": ["Booking.com"]}, {"id": 23931136, "name": "Foresteria La Vista", "link": "https://www.tripadvisor.com/Hotel_Review-g187831-d23931136-Reviews-Foresteria_La_Vista-Cremona_Province_of_Cremona_Lombardy.html", "reviews": 12, "rating": 5, "price_range_usd": {"min": 170, "max": 175}, "phone": "+39 388 787 8038", "address": "Piazza Sant'Antonio Maria Zaccaria 7, 26100 Cremona Italy", "detailed_address": {"street": "Piazza Sant'Antonio Maria Zaccaria 7", "city": "Cremona", "postal_code": "26100", "state": null, "country": "Italy"}, "ranking": {"current_rank": 4, "total": 17}, "featured_image": null, "latitude": 45.132988, "longitude": 10.025395, "amenities": [], "providers": ["Agoda.com"]}, {"id": 12189843, "name": "Cascina Nuova", "link": "https://www.tripadvisor.com/Hotel_Review-g187831-d12189843-Reviews-Cascina_Nuova-Cremona_Province_of_Cremona_Lombardy.html", "reviews": 4, "rating": 4, "price_range_usd": {"min": 128, "max": 131}, "phone": "+39 366 598 1057", "address": "Via Boschetto 51, 26100 Cremona Italy", "detailed_address": {"street": "Via Boschetto 51", "city": "Cremona", "postal_code": "26100", "state": null, "country": "Italy"}, "ranking": {"current_rank": 13, "total": 17}, "featured_image": null, "latitude": 45.1568, "longitude": 10.02504, "amenities": ["Free Wifi", "Free parking", "Pets Allowed"], "providers": ["Booking.com"]}, {"id": 12927404, "name": "Hotel Astoria Cremona", "link": "https://www.tripadvisor.com/Hotel_Review-g187831-d12927404-Reviews-Hotel_Astoria_Cremona-Cremona_Province_of_Cremona_Lombardy.html", "reviews": 90, "rating": 3.5, "price_range_usd": {"min": 111, "max": 118}, "phone": "+39 0372 461616", "address": "Via Domenico Bordigallo 19, 26100 Cremona Italy", "detailed_address": {"street": "Via Domenico Bordigallo 19", "city": "Cremona", "postal_code": "26100", "state": null, "country": "Italy"}, "ranking": {"current_rank": 8, "total": 8}, "featured_image": null, "latitude": 45.134617, "longitude": 10.024125, "amenities": ["Free Wifi", "Breakfast included", "Pets Allowed"], "providers": ["Booking.com"]}, {"id": 7296560, "name": "bb26", "link": "https://www.tripadvisor.com/Hotel_Review-g187831-d7296560-Reviews-Bb26-Cremona_Province_of_Cremona_Lombardy.html", "reviews": 69, "rating": 4.5, "price_range_usd": {"min": 108, "max": 123}, "phone": "+39 347 305 4873", "address": "Via Buoso da Dovara 26 Stradello Interno Chiuso, 26100 Cremona Italy", "detailed_address": {"street": "Via Buoso da Dovara 26, Stradello Interno Chiuso", "city": "Cremona", "postal_code": "26100", "state": null, "country": "Italy"}, "ranking": {"current_rank": 2, "total": 17}, "featured_image": null, "latitude": 45.13453, "longitude": 10.0355, "amenities": ["Free Wifi", "Pets Allowed"], "providers": ["Booking.com"]}, {"id": 7037471, "name": "B&B Stradivari", "link": "https://www.tripadvisor.com/Hotel_Review-g187831-d7037471-Reviews-B_B_Stradivari-Cremona_Province_of_Cremona_Lombardy.html", "reviews": 18, "rating": 4, "price_range_usd": {"min": 85, "max": 92}, "phone": "+39 320 841 9505", "address": "Via Battaglione 22, 26100 Cremona Italy", "detailed_address": {"street": "Via Battaglione 22", "city": "Cremona", "postal_code": "26100", "state": null, "country": "Italy"}, "ranking": {"current_rank": 10, "total": 17}, "featured_image": null, "latitude": 45.12379, "longitude": 10.0568, "amenities": ["Free Wifi", "Free parking", "Pets Allowed"], "providers": ["Booking.com"]}, {"id": 12998462, "name": "B&B FIERA \"in cascina\"", "link": "https://www.tripadvisor.com/Hotel_Review-g187831-d12998462-Reviews-B_B_FIERA_in_cascina-Cremona_Province_of_Cremona_Lombardy.html", "reviews": 12, "rating": 5, "price_range_usd": {"min": 103, "max": 110}, "phone": "+39 338 470 2330", "address": "Via San Quirico 1, 26100 Cremona Italy", "detailed_address": {"street": "Via San Quirico 1", "city": "Cremona", "postal_code": "26100", "state": null, "country": "Italy"}, "ranking": {"current_rank": 8, "total": 17}, "featured_image": null, "latitude": 45.15073, "longitude": 10.02837, "amenities": ["Free Wifi", "Free parking", "Pets Allowed"], "providers": ["Booking.com"]}, {"id": 15232060, "name": "Casa Galattica Per Autostoppisti", "link": "https://www.tripadvisor.com/Hotel_Review-g187831-d15232060-Reviews-Casa_Galattica_Per_Autostoppisti-Cremona_Province_of_Cremona_Lombardy.html", "reviews": 2, "rating": 5, "price_range_usd": {"min": 92, "max": 100}, "phone": "+39 328 003 5626", "address": "Via Dante 80, 26100 Cremona Italy", "detailed_address": {"street": "Via Dante 80", "city": "Cremona", "postal_code": "26100", "state": null, "country": "Italy"}, "ranking": {"current_rank": 9, "total": 10}, "featured_image": null, "latitude": 45.14209, "longitude": 10.01985, "amenities": [], "providers": ["Booking.com"]}, {"id": 2264873, "name": "Osteria 3 spade con locanda", "link": "https://www.tripadvisor.com/Hotel_Review-g187831-d2264873-Reviews-Osteria_3_spade_con_locanda-Cremona_Province_of_Cremona_Lombardy.html", "reviews": 13, "rating": 4, "price_range_usd": {"min": null, "max": null}, "phone": "+39 0372 748820", "address": "Via Buoso da Dovara 4, 26100 Cremona Italy", "detailed_address": {"street": "Via Buoso da Dovara 4", "city": "Cremona", "postal_code": "26100", "state": null, "country": "Italy"}, "ranking": {"current_rank": 12, "total": 17}, "featured_image": null, "latitude": 45.13418, "longitude": 10.034437, "amenities": ["Free Wifi", "Restaurant", "Pets Allowed"], "providers": ["Expedia.com"]}, {"id": 4789274, "name": "B&B Via Sforza", "link": "https://www.tripadvisor.com/Hotel_Review-g187831-d4789274-Reviews-B_B_Via_Sforza-Cremona_Province_of_Cremona_Lombardy.html", "reviews": 8, "rating": 4, "price_range_usd": {"min": null, "max": null}, "phone": "+39 334 140 4159", "address": "Via Francesco Sforza 3, 26100 Cremona Italy", "detailed_address": {"street": "Via Francesco Sforza 3", "city": "Cremona", "postal_code": "26100", "state": null, "country": "Italy"}, "ranking": {"current_rank": 14, "total": 17}, "featured_image": null, "latitude": 45.1267, "longitude": 10.05442, "amenities": ["Free Wifi", "Room service"], "providers": ["Vio.com"]}, {"id": 16640583, "name": "My House Apartments", "link": "https://www.tripadvisor.com/Hotel_Review-g187831-d16640583-Reviews-My_House_Apartments-Cremona_Province_of_Cremona_Lombardy.html", "reviews": 4, "rating": 4.5, "price_range_usd": {"min": 90, "max": 103}, "phone": null, "address": "Corso Campi 46, 26100 Cremona Italy", "detailed_address": {"street": "Corso Campi 46", "city": "Cremona", "postal_code": "26100", "state": null, "country": "Italy"}, "ranking": {"current_rank": 8, "total": 10}, "featured_image": null, "latitude": 45.13556, "longitude": 10.02153, "amenities": [], "providers": ["Booking.com"]}, {"id": 23101863, "name": "Zanzarina D'oro", "link": "https://www.tripadvisor.com/Hotel_Review-g187831-d23101863-Reviews-Zanzarina_D_oro-Cremona_Province_of_Cremona_Lombardy.html", "reviews": 1, "rating": 2, "price_range_usd": {"min": 81, "max": 88}, "phone": "+39 342 555 1193", "address": "Via Case Sparse 1, 26030 Cremona Italy", "detailed_address": {"street": "Via Case Sparse 1", "city": "Cremona", "postal_code": "26030", "state": null, "country": "Italy"}, "ranking": {"current_rank": 10, "total": 10}, "featured_image": null, "latitude": 45.111126, "longitude": 10.037274, "amenities": [], "providers": ["Booking.com"]}, {"id": 19765262, "name": "B&B Amici Miei", "link": "https://www.tripadvisor.com/Hotel_Review-g187831-d19765262-Reviews-B_B_Amici_Miei-Cremona_Province_of_Cremona_Lombardy.html", "reviews": 0, "rating": 0, "price_range_usd": {"min": 80, "max": 89}, "phone": "+39 329 534 9681", "address": "Via Bizzarra 18, 26100 Cremona Italy", "detailed_address": {"street": "Via Bizzarra 18", "city": "Cremona", "postal_code": "26100", "state": null, "country": "Italy"}, "ranking": null, "featured_image": null, "latitude": 45.13817, "longitude": 10.02543, "amenities": [], "providers": ["Booking.com"]}]}, "error": null}