{"data": {"link": "https://www.tripadvisor.com/Hotels-g187871-oa90-Verona_Province_of_Verona_Veneto-Hotels.html", "total_pages": 38, "current_page": 4, "total_items_count": 1111, "items_count": 30, "results": [{"id": 7077889, "name": "Lady Capulet Apartments", "link": "https://www.tripadvisor.com/Hotel_Review-g187871-d7077889-Reviews-Lady_Capulet_Apartments-Verona_Province_of_Verona_Veneto.html", "reviews": 131, "rating": 5, "price_range_usd": {"min": 141, "max": 236}, "phone": "+39 349 757 0079", "address": "Vicolo Pallone 2A, 37121, Verona Italy", "detailed_address": {"street": "Vicolo Pallone 2A", "city": null, "postal_code": "37121", "state": null, "country": "Italy"}, "ranking": {"current_rank": 20, "total": 344}, "featured_image": null, "latitude": 45.436356, "longitude": 10.99787, "amenities": ["Free Wifi"], "providers": []}, {"id": 1858894, "name": "Vicolo 22", "link": "https://www.tripadvisor.com/Hotel_Review-g187871-d1858894-Reviews-Vicolo_22-Verona_Province_of_Verona_Veneto.html", "reviews": 276, "rating": 4, "price_range_usd": {"min": 50, "max": 81}, "phone": "+39 348 271 9393", "address": "Vicolo Santa Caterina 22, 37122, Verona Italy", "detailed_address": {"street": "Vicolo Santa Caterina 22", "city": null, "postal_code": "37122", "state": null, "country": "Italy"}, "ranking": {"current_rank": 117, "total": 466}, "featured_image": null, "latitude": 45.436405, "longitude": 10.988006, "amenities": ["Free Wifi", "Pets Allowed"], "providers": []}, {"id": 1191633, "name": "Residence Viale Venezia", "link": "https://www.tripadvisor.com/Hotel_Review-g187871-d1191633-Reviews-Residence_Viale_Venezia-Verona_Province_of_Verona_Veneto.html", "reviews": 352, "rating": 4, "price_range_usd": {"min": 85, "max": 108}, "phone": "+39 045 520206", "address": "Corso Venezia N. 89, 37131, Verona Italy", "detailed_address": {"street": "Corso Venezia N. 89", "city": null, "postal_code": "37131", "state": null, "country": "Italy"}, "ranking": {"current_rank": 48, "total": 87}, "featured_image": null, "latitude": 45.439293, "longitude": 11.019527, "amenities": ["Free Wifi", "Free parking"], "providers": []}, {"id": 239179, "name": "Hotel Gabbia d'Oro", "link": "https://www.tripadvisor.com/Hotel_Review-g187871-d239179-Reviews-Hotel_Gabbia_d_Oro-Verona_Province_of_Verona_Veneto.html", "reviews": 319, "rating": 4.5, "price_range_usd": {"min": 301, "max": 405}, "phone": "+39 045 800 3060", "address": "Corso Porta Borsari 4A, 37121, Verona Italy", "detailed_address": {"street": "Corso Porta Borsari 4A", "city": null, "postal_code": "37121", "state": null, "country": "Italy"}, "ranking": {"current_rank": 18, "total": 87}, "featured_image": null, "latitude": 45.44349, "longitude": 10.996365, "amenities": ["Free Wifi", "Breakfast included", "Restaurant", "Airport transportation", "Room service"], "providers": []}, {"id": 23973089, "name": "Casamore Rooms", "link": "https://www.tripadvisor.com/Hotel_Review-g187871-d23973089-Reviews-Casamore_Rooms-Verona_Province_of_Verona_Veneto.html", "reviews": 17, "rating": 3, "price_range_usd": {"min": 57, "max": 151}, "phone": "+39 380 643 2755", "address": "Via Dei Mutilati 7 Primo Piano, 37122, Verona Italy", "detailed_address": {"street": "Via Dei Mutilati 7, Primo Piano", "city": null, "postal_code": "37122", "state": null, "country": "Italy"}, "ranking": {"current_rank": 386, "total": 466}, "featured_image": null, "latitude": 45.437893, "longitude": 10.989835, "amenities": [], "providers": []}, {"id": 529851, "name": "Boutique Hotel Trieste", "link": "https://www.tripadvisor.com/Hotel_Review-g187871-d529851-Reviews-Boutique_Hotel_Trieste-Verona_Province_of_Verona_Veneto.html", "reviews": 905, "rating": 4.5, "price_range_usd": {"min": 151, "max": 239}, "phone": "+39 045 596022", "address": "Corso Porta Nuova 57, 37122, Verona Italy", "detailed_address": {"street": "Corso Porta Nuova 57", "city": null, "postal_code": "37122", "state": null, "country": "Italy"}, "ranking": {"current_rank": 9, "total": 87}, "featured_image": null, "latitude": 45.43523, "longitude": 10.990383, "amenities": ["Free Wifi", "Bar/Lounge"], "providers": []}, {"id": 16643981, "name": "Butterfly Boutique Rooms", "link": "https://www.tripadvisor.com/Hotel_Review-g187871-d16643981-Reviews-Butterfly_Boutique_Rooms-Verona_Province_of_Verona_Veneto.html", "reviews": 60, "rating": 5, "price_range_usd": {"min": 243, "max": 308}, "phone": "+39 045 570 9706", "address": "Via Ponte Rofiolo 1, 37121, Verona Italy", "detailed_address": {"street": "Via Ponte Rofiolo 1", "city": null, "postal_code": "37121", "state": null, "country": "Italy"}, "ranking": {"current_rank": 35, "total": 466}, "featured_image": null, "latitude": 45.436558, "longitude": 10.997376, "amenities": ["Free Wifi"], "providers": []}, {"id": 26106188, "name": "B&B Corte Grisi", "link": "https://www.tripadvisor.com/Hotel_Review-g187871-d26106188-Reviews-B_B_Corte_Grisi-Verona_Province_of_Verona_Veneto.html", "reviews": 1, "rating": 5, "price_range_usd": {"min": 91, "max": 106}, "phone": null, "address": "Piazza Mercato 20, 37030, Verona Italy", "detailed_address": {"street": "Piazza Mercato 20", "city": null, "postal_code": "37030", "state": null, "country": "Italy"}, "ranking": {"current_rank": 339, "total": 466}, "featured_image": null, "latitude": 45.43419, "longitude": 10.9977, "amenities": [], "providers": []}, {"id": 12147907, "name": "Residenza Elisabetta", "link": "https://www.tripadvisor.com/Hotel_Review-g187871-d12147907-Reviews-Residenza_Elisabetta-Verona_Province_of_Verona_Veneto.html", "reviews": 126, "rating": 5, "price_range_usd": {"min": 85, "max": 141}, "phone": "+39 388 122 1218", "address": "Via Amanti 9, 37121, Verona Italy", "detailed_address": {"street": "Via Amanti 9", "city": null, "postal_code": "37121", "state": null, "country": "Italy"}, "ranking": {"current_rank": 5, "total": 344}, "featured_image": null, "latitude": 45.44089, "longitude": 11.000458, "amenities": ["Free Wifi", "Breakfast included", "Pets Allowed"], "providers": []}, {"id": 3471340, "name": "3Jolie Bed & Breakfast", "link": "https://www.tripadvisor.com/Hotel_Review-g187871-d3471340-Reviews-3Jolie_Bed_Breakfast-Verona_Province_of_Verona_Veneto.html", "reviews": 117, "rating": 3.5, "price_range_usd": {"min": 59, "max": 80}, "phone": "+39 320 339 6764", "address": "Via Don Carlo Steeb 15, 37122, Verona Italy", "detailed_address": {"street": "Via Don Carlo Steeb 15", "city": null, "postal_code": "37122", "state": null, "country": "Italy"}, "ranking": {"current_rank": 312, "total": 466}, "featured_image": null, "latitude": 45.435486, "longitude": 10.98696, "amenities": ["Free Wifi"], "providers": []}, {"id": 6916008, "name": "Cinque Luxury Rooms Verona", "link": "https://www.tripadvisor.com/Hotel_Review-g187871-d6916008-Reviews-Cinque_Luxury_Rooms_Verona-Verona_Province_of_Verona_Veneto.html", "reviews": 342, "rating": 4.5, "price_range_usd": {"min": 70, "max": 153}, "phone": "+39 045 597004", "address": "Piazzetta Portichetti 3, 37123, Verona Italy", "detailed_address": {"street": "Piazzetta Portichetti 3", "city": null, "postal_code": "37123", "state": null, "country": "Italy"}, "ranking": {"current_rank": 19, "total": 466}, "featured_image": null, "latitude": 45.441566, "longitude": 10.982201, "amenities": ["Free Wifi", "Breakfast included"], "providers": []}, {"id": 12200146, "name": "Ai Conti", "link": "https://www.tripadvisor.com/Hotel_Review-g187871-d12200146-Reviews-Ai_Conti-Verona_Province_of_Verona_Veneto.html", "reviews": 35, "rating": 3, "price_range_usd": {"min": 64, "max": 100}, "phone": "+39 351 959 6853", "address": "Vicolo Rensi 3, 37121, Verona Italy", "detailed_address": {"street": "Vicolo Rensi 3", "city": null, "postal_code": "37121", "state": null, "country": "Italy"}, "ranking": {"current_rank": 412, "total": 466}, "featured_image": null, "latitude": 45.44077, "longitude": 10.99379, "amenities": [], "providers": []}, {"id": 17696360, "name": "B&B Fablas", "link": "https://www.tripadvisor.com/Hotel_Review-g187871-d17696360-Reviews-B_B_Fablas-Verona_Province_of_Verona_Veneto.html", "reviews": 78, "rating": 5, "price_range_usd": {"min": 66, "max": 115}, "phone": "+39 347 150 2503", "address": "Via Vittorio Locchi, 23, 37124, Verona Italy", "detailed_address": {"street": "Via Vittorio Locchi, 23", "city": null, "postal_code": "37124", "state": null, "country": "Italy"}, "ranking": {"current_rank": 10, "total": 344}, "featured_image": null, "latitude": 45.459167, "longitude": 10.981125, "amenities": ["Free Wifi", "Breakfast included"], "providers": []}, {"id": 14012232, "name": "Gabrielli Rooms & Apartments", "link": "https://www.tripadvisor.com/Hotel_Review-g187871-d14012232-Reviews-Gabrielli_Rooms_Apartments-Verona_Province_of_Verona_Veneto.html", "reviews": 28, "rating": 2.5, "price_range_usd": {"min": 44, "max": 80}, "phone": "+39 340 621 2214", "address": "Viale della Fiera 6, 37136, Verona Italy", "detailed_address": {"street": "Viale della Fiera 6", "city": null, "postal_code": "37136", "state": null, "country": "Italy"}, "ranking": {"current_rank": 342, "total": 344}, "featured_image": null, "latitude": 45.421528, "longitude": 10.98175, "amenities": [], "providers": []}, {"id": 4026462, "name": "Nuova Opera Rooms", "link": "https://www.tripadvisor.com/Hotel_Review-g187871-d4026462-Reviews-Nuova_Opera_Rooms-Verona_Province_of_Verona_Veneto.html", "reviews": 130, "rating": 5, "price_range_usd": {"min": 103, "max": 130}, "phone": "+39 333 658 7337", "address": "Piazzale Aristide Stefani 8, 37126, Verona Italy", "detailed_address": {"street": "Piazzale Aristide Stefani 8", "city": null, "postal_code": "37126", "state": null, "country": "Italy"}, "ranking": {"current_rank": 34, "total": 466}, "featured_image": null, "latitude": 45.45134, "longitude": 10.986172, "amenities": ["Free Wifi", "Pets Allowed"], "providers": []}, {"id": 4885645, "name": "Casa Panvinio", "link": "https://www.tripadvisor.com/Hotel_Review-g187871-d4885645-Reviews-Casa_Panvinio-Verona_Province_of_Verona_Veneto.html", "reviews": 196, "rating": 5, "price_range_usd": {"min": 106, "max": 127}, "phone": "+39 045 803 1251", "address": "Lungadige Panvinio 19/A, 37121, Verona Italy", "detailed_address": {"street": "Lungadige Panvinio 19/A", "city": null, "postal_code": "37121", "state": null, "country": "Italy"}, "ranking": {"current_rank": 16, "total": 466}, "featured_image": null, "latitude": 45.444496, "longitude": 10.993347, "amenities": ["Free Wifi", "Pets Allowed"], "providers": []}, {"id": 11796994, "name": "B&B Valverde", "link": "https://www.tripadvisor.com/Hotel_Review-g187871-d11796994-Reviews-B_B_Valverde-Verona_Province_of_Verona_Veneto.html", "reviews": 140, "rating": 5, "price_range_usd": {"min": 88, "max": 123}, "phone": "+39 348 555 5249", "address": "Via della Valverde 9, 37122, Verona Italy", "detailed_address": {"street": "Via della Valverde 9", "city": null, "postal_code": "37122", "state": null, "country": "Italy"}, "ranking": {"current_rank": 1, "total": 344}, "featured_image": null, "latitude": 45.43521, "longitude": 10.98884, "amenities": ["Free Wifi", "Airport transportation"], "providers": []}, {"id": 237431, "name": "Hotel Borghetti", "link": "https://www.tripadvisor.com/Hotel_Review-g187871-d237431-Reviews-Hotel_Borghetti-Verona_Province_of_Verona_Veneto.html", "reviews": 227, "rating": 3.5, "price_range_usd": {"min": 73, "max": 85}, "phone": "+39 045 941045", "address": "Via Valpolicella 47, 37124, Verona Italy", "detailed_address": {"street": "Via Valpolicella 47", "city": null, "postal_code": "37124", "state": null, "country": "Italy"}, "ranking": {"current_rank": 60, "total": 87}, "featured_image": null, "latitude": 45.479958, "longitude": 10.944188, "amenities": ["Free Wifi", "Free parking", "Restaurant", "Pets Allowed"], "providers": []}, {"id": 6640846, "name": "Marconi Rooms & Apartments", "link": "https://www.tripadvisor.com/Hotel_Review-g187871-d6640846-Reviews-Marconi_Rooms_Apartments-Verona_Province_of_Verona_Veneto.html", "reviews": 238, "rating": 4.5, "price_range_usd": {"min": 67, "max": 94}, "phone": "+39 045 511 6402", "address": "Via Guglielmo Marconi 44, 37122, Verona Italy", "detailed_address": {"street": "Via Guglielmo Marconi 44", "city": null, "postal_code": "37122", "state": null, "country": "Italy"}, "ranking": {"current_rank": 47, "total": 466}, "featured_image": null, "latitude": 45.436504, "longitude": 10.98672, "amenities": ["Free Wifi", "Pets Allowed"], "providers": []}, {"id": 7277920, "name": "Casa Vittoria", "link": "https://www.tripadvisor.com/Hotel_Review-g187871-d7277920-Reviews-Casa_Vittoria-Verona_Province_of_Verona_Veneto.html", "reviews": 97, "rating": 4.5, "price_range_usd": {"min": 76, "max": 154}, "phone": "+39 335 600 4994", "address": "Corso Porta Nuova 39, 37122, Verona Italy", "detailed_address": {"street": "Corso Porta Nuova 39", "city": null, "postal_code": "37122", "state": null, "country": "Italy"}, "ranking": {"current_rank": 95, "total": 466}, "featured_image": null, "latitude": 45.43601, "longitude": 10.990693, "amenities": ["Free Wifi", "Breakfast included", "Bar/Lounge"], "providers": []}, {"id": 15798404, "name": "Residenza Palazzo Brenzoni", "link": "https://www.tripadvisor.com/Hotel_Review-g187871-d15798404-Reviews-Residenza_Palazzo_Brenzoni-Verona_Province_of_Verona_Veneto.html", "reviews": 19, "rating": 4.5, "price_range_usd": {"min": 114, "max": 193}, "phone": "+39 045 867 3041", "address": "Via Duomo 13, 37121, Verona Italy", "detailed_address": {"street": "Via Duomo 13", "city": null, "postal_code": "37121", "state": null, "country": "Italy"}, "ranking": {"current_rank": 81, "total": 344}, "featured_image": null, "latitude": 45.44636, "longitude": 10.997615, "amenities": ["Free Wifi", "Pets Allowed"], "providers": []}, {"id": 1858033, "name": "Agriturismo Le Case di Campagna", "link": "https://www.tripadvisor.com/Hotel_Review-g187871-d1858033-Reviews-Agriturismo_Le_Case_di_Campagna-Verona_Province_of_Verona_Veneto.html", "reviews": 262, "rating": 5, "price_range_usd": {"min": 101, "max": 113}, "phone": "+39 328 222 3476", "address": "Via Chioda 234/A, 37136, Verona Italy", "detailed_address": {"street": "Via Chioda 234/A", "city": null, "postal_code": "37136", "state": null, "country": "Italy"}, "ranking": {"current_rank": 3, "total": 344}, "featured_image": null, "latitude": 45.396805, "longitude": 10.924444, "amenities": ["Free Wifi", "Free parking", "Breakfast included", "Pool", "Outdoor pool"], "providers": []}, {"id": 237426, "name": "Hotel Gardenia Verona", "link": "https://www.tripadvisor.com/Hotel_Review-g187871-d237426-Reviews-Hotel_Gardenia_Verona-Verona_Province_of_Verona_Veneto.html", "reviews": 622, "rating": 4, "price_range_usd": {"min": 81, "max": 112}, "phone": "+39 045 972122", "address": "Via Unita d'Italia 350, 37132, Verona Italy", "detailed_address": {"street": "Via Unita d'Italia 350", "city": null, "postal_code": "37132", "state": null, "country": "Italy"}, "ranking": {"current_rank": 25, "total": 87}, "featured_image": null, "latitude": 45.430202, "longitude": 11.058304, "amenities": ["Free Wifi", "Free parking"], "providers": []}, {"id": 790059, "name": "Casa Magnani", "link": "https://www.tripadvisor.com/Hotel_Review-g187871-d790059-Reviews-Casa_Magnani-Verona_Province_of_Verona_Veneto.html", "reviews": 128, "rating": 4, "price_range_usd": {"min": 68, "max": 84}, "phone": "+39 338 402 2579", "address": "Via Messer Ottonello, 7, 37127, Verona Italy", "detailed_address": {"street": "Via Messer Ottonello, 7", "city": null, "postal_code": "37127", "state": null, "country": "Italy"}, "ranking": {"current_rank": 113, "total": 466}, "featured_image": null, "latitude": 45.466606, "longitude": 10.988825, "amenities": ["Free Wifi", "Free parking", "Pets Allowed", "Bar/Lounge"], "providers": []}, {"id": 1551311, "name": "Corte Beatrice", "link": "https://www.tripadvisor.com/Hotel_Review-g187871-d1551311-Reviews-Corte_Beatrice-Verona_Province_of_Verona_Veneto.html", "reviews": 47, "rating": 5, "price_range_usd": {"min": 110, "max": 112}, "phone": "+39 340 339 5407", "address": "Contrada Gazzego 12 Nesente, 37142, Verona Italy", "detailed_address": {"street": "Contrada Gazzego 12, Nesente", "city": null, "postal_code": "37142", "state": null, "country": "Italy"}, "ranking": {"current_rank": 119, "total": 466}, "featured_image": null, "latitude": 45.481583, "longitude": 11.035317, "amenities": ["Free Wifi", "Free parking", "Breakfast included", "Airport transportation", "Pets Allowed"], "providers": []}, {"id": 7713420, "name": "Affittacamere Boutique Room", "link": "https://www.tripadvisor.com/Hotel_Review-g187871-d7713420-Reviews-Affittacamere_Boutique_Room-Verona_Province_of_Verona_Veneto.html", "reviews": 7, "rating": 4, "price_range_usd": {"min": 111, "max": 156}, "phone": null, "address": "Via San Antonio 6, 37122, Verona Italy", "detailed_address": {"street": "Via San Antonio 6", "city": null, "postal_code": "37122", "state": null, "country": "Italy"}, "ranking": {"current_rank": 283, "total": 466}, "featured_image": null, "latitude": 45.436943, "longitude": 10.989245, "amenities": ["Free Wifi", "Airport transportation"], "providers": []}, {"id": 238866, "name": "Hotel Corte Ongaro", "link": "https://www.tripadvisor.com/Hotel_Review-g187871-d238866-Reviews-Hotel_Corte_Ongaro-Verona_Province_of_Verona_Veneto.html", "reviews": 545, "rating": 4, "price_range_usd": {"min": 108, "max": 146}, "phone": "+39 045 820 4260", "address": "Via Scuderlando 40, 37135, Verona Italy", "detailed_address": {"street": "Via Scuderlando 40", "city": null, "postal_code": "37135", "state": null, "country": "Italy"}, "ranking": {"current_rank": 33, "total": 87}, "featured_image": null, "latitude": 45.415405, "longitude": 10.985405, "amenities": ["Free Wifi", "Free parking", "Breakfast included", "Airport transportation", "Room service"], "providers": []}, {"id": 2204270, "name": "Residenza Cuor di Verona", "link": "https://www.tripadvisor.com/Hotel_Review-g187871-d2204270-Reviews-Residenza_Cuor_di_Verona-Verona_Province_of_Verona_Veneto.html", "reviews": 255, "rating": 4.5, "price_range_usd": {"min": 101, "max": 155}, "phone": "+39 045 929 9869", "address": "Piazza Cittadella 9, 37122, Verona Italy", "detailed_address": {"street": "Piazza Cittadella 9", "city": null, "postal_code": "37122", "state": null, "country": "Italy"}, "ranking": {"current_rank": 23, "total": 466}, "featured_image": null, "latitude": 45.436703, "longitude": 10.993085, "amenities": ["Free Wifi", "Breakfast included", "Pets Allowed"], "providers": []}, {"id": 2230170, "name": "B&B la Torre", "link": "https://www.tripadvisor.com/Hotel_Review-g187871-d2230170-Reviews-B_B_la_Torre-Verona_Province_of_Verona_Veneto.html", "reviews": 96, "rating": 5, "price_range_usd": {"min": 93, "max": 153}, "phone": "+39 348 793 7797", "address": "Via Quattro Spade 9, 37121, Verona Italy", "detailed_address": {"street": "Via Quattro Spade 9", "city": null, "postal_code": "37121", "state": null, "country": "Italy"}, "ranking": {"current_rank": 57, "total": 466}, "featured_image": null, "latitude": 45.44193, "longitude": 10.99556, "amenities": ["Free Wifi", "Airport transportation"], "providers": []}, {"id": 4728452, "name": "Lenotti Verona", "link": "https://www.tripadvisor.com/Hotel_Review-g187871-d4728452-Reviews-Lenotti_Verona-Verona_Province_of_Verona_Veneto.html", "reviews": 174, "rating": 4.5, "price_range_usd": {"min": 62, "max": 122}, "phone": "+39 366 603 2131", "address": "Via Luigi Lenotti, 4, 37123, Verona Italy", "detailed_address": {"street": "Via Luigi Lenotti, 4", "city": null, "postal_code": "37123", "state": null, "country": "Italy"}, "ranking": {"current_rank": 24, "total": 344}, "featured_image": null, "latitude": 45.44032, "longitude": 10.978802, "amenities": ["Free Wifi"], "providers": []}]}, "error": null}