{"data": {"link": "https://www.tripadvisor.com/Hotels-g187831-oa30-Cremona_Province_of_Cremona_Lombardy-Hotels.html", "total_pages": 2, "current_page": 2, "total_items_count": 58, "items_count": 28, "results": [{"id": 13803717, "name": "B&B La Bicicletta", "link": "https://www.tripadvisor.com/Hotel_Review-g187831-d13803717-Reviews-B_B_La_Bicicletta-Cremona_Province_of_Cremona_Lombardy.html", "reviews": 39, "rating": 5, "price_range_usd": {"min": 91, "max": 116}, "phone": "+39 339 101 6893", "address": "Via Emanuele Sardagna 7, 26100 Cremona Italy", "detailed_address": {"street": "Via Emanuele Sardagna 7", "city": "Cremona", "postal_code": "26100", "state": null, "country": "Italy"}, "ranking": {"current_rank": 1, "total": 17}, "featured_image": null, "latitude": 45.1477, "longitude": 10.03255, "amenities": ["Free Wifi", "Pets Allowed"], "providers": []}, {"id": 2099474, "name": "Casale Carrobbio", "link": "https://www.tripadvisor.com/Hotel_Review-g187831-d2099474-Reviews-Casale_Carrobbio-Cremona_Province_of_Cremona_Lombardy.html", "reviews": 116, "rating": 4.5, "price_range_usd": {"min": null, "max": null}, "phone": "+39 331 433 3797", "address": "Via Castelverde 54, 26100 Cremona Italy", "detailed_address": {"street": "Via Castelverde 54", "city": "Cremona", "postal_code": "26100", "state": null, "country": "Italy"}, "ranking": {"current_rank": 1, "total": 10}, "featured_image": null, "latitude": 45.171738, "longitude": 9.993533, "amenities": ["Free parking", "Breakfast included"], "providers": []}, {"id": 7296560, "name": "bb26", "link": "https://www.tripadvisor.com/Hotel_Review-g187831-d7296560-Reviews-Bb26-Cremona_Province_of_Cremona_Lombardy.html", "reviews": 69, "rating": 4.5, "price_range_usd": {"min": 108, "max": 123}, "phone": "+39 347 305 4873", "address": "Via Buoso da Dovara 26 Stradello Interno Chiuso, 26100 Cremona Italy", "detailed_address": {"street": "Via Buoso da Dovara 26, Stradello Interno Chiuso", "city": "Cremona", "postal_code": "26100", "state": null, "country": "Italy"}, "ranking": {"current_rank": 2, "total": 17}, "featured_image": null, "latitude": 45.13453, "longitude": 10.0355, "amenities": ["Free Wifi", "Pets Allowed"], "providers": []}, {"id": 194159, "name": "Continental Hotel", "link": "https://www.tripadvisor.com/Hotel_Review-g187831-d194159-Reviews-Continental_Hotel-Cremona_Province_of_Cremona_Lombardy.html", "reviews": 337, "rating": 3.5, "price_range_usd": {"min": 131, "max": 139}, "phone": "+39 0372 434141", "address": "Piazza della Liberta' 26, 26100 Cremona Italy", "detailed_address": {"street": "Piazza della Liberta' 26", "city": "Cremona", "postal_code": "26100", "state": null, "country": "Italy"}, "ranking": {"current_rank": 4, "total": 8}, "featured_image": null, "latitude": 45.137093, "longitude": 10.031963, "amenities": ["Free Wifi", "Restaurant", "Room service", "Pets Allowed", "Bar/Lounge"], "providers": []}, {"id": 1584349, "name": "B&B Monteverdi", "link": "https://www.tripadvisor.com/Hotel_Review-g187831-d1584349-Reviews-B_B_Monteverdi-Cremona_Province_of_Cremona_Lombardy.html", "reviews": 54, "rating": 5, "price_range_usd": {"min": null, "max": null}, "phone": "+39 349 612 1624", "address": "Via Francesco Robolotti 25, 26100 Cremona Italy", "detailed_address": {"street": "Via Francesco Robolotti 25", "city": "Cremona", "postal_code": "26100", "state": null, "country": "Italy"}, "ranking": {"current_rank": 3, "total": 17}, "featured_image": null, "latitude": 45.13713, "longitude": 10.02449, "amenities": ["Free Wifi", "Free parking", "Breakfast included", "Pets Allowed"], "providers": []}, {"id": 2289011, "name": "Locanda Torriani", "link": "https://www.tripadvisor.com/Hotel_Review-g187831-d2289011-Reviews-Locanda_Torriani-Cremona_Province_of_Cremona_Lombardy.html", "reviews": 68, "rating": 4.5, "price_range_usd": {"min": null, "max": null}, "phone": "+39 0372 30017", "address": "Via Janello Torriani 7, 26100 Cremona Italy", "detailed_address": {"street": "Via Janello Torriani 7", "city": "Cremona", "postal_code": "26100", "state": null, "country": "Italy"}, "ranking": {"current_rank": 3, "total": 10}, "featured_image": null, "latitude": 45.134525, "longitude": 10.025347, "amenities": ["Free Wifi", "Breakfast included", "Restaurant", "Pets Allowed", "Bar/Lounge"], "providers": []}, {"id": 23931136, "name": "Foresteria La Vista", "link": "https://www.tripadvisor.com/Hotel_Review-g187831-d23931136-Reviews-Foresteria_La_Vista-Cremona_Province_of_Cremona_Lombardy.html", "reviews": 12, "rating": 5, "price_range_usd": {"min": 170, "max": 175}, "phone": "+39 388 787 8038", "address": "Piazza Sant'Antonio Maria Zaccaria 7, 26100 Cremona Italy", "detailed_address": {"street": "Piazza Sant'Antonio Maria Zaccaria 7", "city": "Cremona", "postal_code": "26100", "state": null, "country": "Italy"}, "ranking": {"current_rank": 4, "total": 17}, "featured_image": null, "latitude": 45.132988, "longitude": 10.025395, "amenities": [], "providers": []}, {"id": 12569074, "name": "Camping Parco al Po", "link": "https://www.tripadvisor.com/Hotel_Review-g187831-d12569074-Reviews-Camping_Parco_al_Po-Cremona_Province_of_Cremona_Lombardy.html", "reviews": 40, "rating": 4, "price_range_usd": {"min": null, "max": null}, "phone": "+39 340 842 0465", "address": "Via del Sale 60, 26100 Cremona Italy", "detailed_address": {"street": "Via del Sale 60", "city": "Cremona", "postal_code": "26100", "state": null, "country": "Italy"}, "ranking": {"current_rank": 4, "total": 10}, "featured_image": null, "latitude": 45.125076, "longitude": 10.007941, "amenities": ["Pets Allowed", "Bar/Lounge"], "providers": []}, {"id": 14062176, "name": "B&B Mille", "link": "https://www.tripadvisor.com/Hotel_Review-g187831-d14062176-Reviews-B_B_Mille-Cremona_Province_of_Cremona_Lombardy.html", "reviews": 14, "rating": 5, "price_range_usd": {"min": null, "max": null}, "phone": "+39 392 740 3597", "address": "Via Dei Mille 7, 26100 Cremona Italy", "detailed_address": {"street": "Via Dei Mille 7", "city": "Cremona", "postal_code": "26100", "state": null, "country": "Italy"}, "ranking": {"current_rank": 5, "total": 10}, "featured_image": null, "latitude": 45.13837, "longitude": 10.01634, "amenities": ["Free Wifi", "Breakfast included"], "providers": []}, {"id": 12998462, "name": "B&B FIERA \"in cascina\"", "link": "https://www.tripadvisor.com/Hotel_Review-g187831-d12998462-Reviews-B_B_FIERA_in_cascina-Cremona_Province_of_Cremona_Lombardy.html", "reviews": 12, "rating": 5, "price_range_usd": {"min": 103, "max": 110}, "phone": "+39 338 470 2330", "address": "Via San Quirico 1, 26100 Cremona Italy", "detailed_address": {"street": "Via San Quirico 1", "city": "Cremona", "postal_code": "26100", "state": null, "country": "Italy"}, "ranking": {"current_rank": 8, "total": 17}, "featured_image": null, "latitude": 45.15073, "longitude": 10.02837, "amenities": ["Free Wifi", "Free parking", "Pets Allowed"], "providers": []}, {"id": 3750455, "name": "Agriturismo Cantonazzo", "link": "https://www.tripadvisor.com/Hotel_Review-g187831-d3750455-Reviews-Agriturismo_Cantonazzo-Cremona_Province_of_Cremona_Lombardy.html", "reviews": 34, "rating": 4, "price_range_usd": {"min": null, "max": null}, "phone": null, "address": "Via Giuseppe Verdi 44, Cremona Italy", "detailed_address": {"street": "Via Giuseppe Verdi 44", "city": "Cremona", "postal_code": null, "state": null, "country": "Italy"}, "ranking": {"current_rank": 7, "total": 10}, "featured_image": null, "latitude": 45.13358, "longitude": 10.02275, "amenities": ["Free parking", "Restaurant"], "providers": []}, {"id": 3146562, "name": "Dimora Della Gran Farnia", "link": "https://www.tripadvisor.com/Hotel_Review-g187831-d3146562-Reviews-Dimora_Della_Gran_Farnia-Cremona_Province_of_Cremona_Lombardy.html", "reviews": 21, "rating": 4, "price_range_usd": {"min": null, "max": null}, "phone": "+39 331 960 4386", "address": "SS 10 N 2 Castelvetro Mezzano Chitantolo, 29010 Cremona Italy", "detailed_address": {"street": "SS 10 N 2 Castelvetro, Mezzano Chitantolo", "city": "Cremona", "postal_code": "29010", "state": null, "country": "Italy"}, "ranking": {"current_rank": 11, "total": 17}, "featured_image": null, "latitude": 45.1132, "longitude": 9.9952, "amenities": ["Free Wifi", "Free parking", "Pets Allowed"], "providers": []}, {"id": 2264873, "name": "Osteria 3 spade con locanda", "link": "https://www.tripadvisor.com/Hotel_Review-g187831-d2264873-Reviews-Osteria_3_spade_con_locanda-Cremona_Province_of_Cremona_Lombardy.html", "reviews": 13, "rating": 4, "price_range_usd": {"min": null, "max": null}, "phone": "+39 0372 748820", "address": "Via Buoso da Dovara 4, 26100 Cremona Italy", "detailed_address": {"street": "Via Buoso da Dovara 4", "city": "Cremona", "postal_code": "26100", "state": null, "country": "Italy"}, "ranking": {"current_rank": 12, "total": 17}, "featured_image": null, "latitude": 45.13418, "longitude": 10.034437, "amenities": ["Free Wifi", "Restaurant", "Pets Allowed"], "providers": []}, {"id": 16640583, "name": "My House Apartments", "link": "https://www.tripadvisor.com/Hotel_Review-g187831-d16640583-Reviews-My_House_Apartments-Cremona_Province_of_Cremona_Lombardy.html", "reviews": 4, "rating": 4.5, "price_range_usd": {"min": 90, "max": 103}, "phone": null, "address": "Corso Campi 46, 26100 Cremona Italy", "detailed_address": {"street": "Corso Campi 46", "city": "Cremona", "postal_code": "26100", "state": null, "country": "Italy"}, "ranking": {"current_rank": 8, "total": 10}, "featured_image": null, "latitude": 45.13556, "longitude": 10.02153, "amenities": [], "providers": []}, {"id": 4789274, "name": "B&B Via Sforza", "link": "https://www.tripadvisor.com/Hotel_Review-g187831-d4789274-Reviews-B_B_Via_Sforza-Cremona_Province_of_Cremona_Lombardy.html", "reviews": 8, "rating": 4, "price_range_usd": {"min": null, "max": null}, "phone": "+39 334 140 4159", "address": "Via Francesco Sforza 3, 26100 Cremona Italy", "detailed_address": {"street": "Via Francesco Sforza 3", "city": "Cremona", "postal_code": "26100", "state": null, "country": "Italy"}, "ranking": {"current_rank": 14, "total": 17}, "featured_image": null, "latitude": 45.1267, "longitude": 10.05442, "amenities": ["Free Wifi", "Room service"], "providers": []}, {"id": 8725532, "name": "Dormire ViaMilano 28", "link": "https://www.tripadvisor.com/Hotel_Review-g187831-d8725532-Reviews-Dormire_ViaMilano_28-Cremona_Province_of_Cremona_Lombardy.html", "reviews": 4, "rating": 5, "price_range_usd": {"min": null, "max": null}, "phone": "9487293496", "address": "Via Milano 28 Sopra la pizzeria La Piedigrotta, 26100 Cremona Italy", "detailed_address": {"street": "Via Milano 28, Sopra la pizzeria La Piedigrotta", "city": "Cremona", "postal_code": "26100", "state": null, "country": "Italy"}, "ranking": {"current_rank": 15, "total": 17}, "featured_image": null, "latitude": 45.14511, "longitude": 9.98504, "amenities": ["Breakfast included", "Restaurant", "Pets Allowed", "Bar/Lounge"], "providers": []}, {"id": 15232060, "name": "Casa Galattica Per Autostoppisti", "link": "https://www.tripadvisor.com/Hotel_Review-g187831-d15232060-Reviews-Casa_Galattica_Per_Autostoppisti-Cremona_Province_of_Cremona_Lombardy.html", "reviews": 2, "rating": 5, "price_range_usd": {"min": 92, "max": 100}, "phone": "+39 328 003 5626", "address": "Via Dante 80, 26100 Cremona Italy", "detailed_address": {"street": "Via Dante 80", "city": "Cremona", "postal_code": "26100", "state": null, "country": "Italy"}, "ranking": {"current_rank": 9, "total": 10}, "featured_image": null, "latitude": 45.14209, "longitude": 10.01985, "amenities": [], "providers": []}, {"id": 27940965, "name": "Locanda del Centrale", "link": "https://www.tripadvisor.com/Hotel_Review-g187831-d27940965-Reviews-Locanda_del_Centrale-Cremona_Province_of_Cremona_Lombardy.html", "reviews": 1, "rating": 5, "price_range_usd": {"min": 152, "max": 155}, "phone": null, "address": "4 Vicolo Pertusio, 26100 Cremona Italy", "detailed_address": {"street": "4 Vicolo Pertusio", "city": "Cremona", "postal_code": "26100", "state": null, "country": "Italy"}, "ranking": {"current_rank": 16, "total": 17}, "featured_image": null, "latitude": 45.134792, "longitude": 10.02467, "amenities": [], "providers": []}, {"id": 1392006, "name": "La Locanda", "link": "https://www.tripadvisor.com/Hotel_Review-g187831-d1392006-Reviews-La_Locanda-Cremona_Province_of_Cremona_Lombardy.html", "reviews": 1, "rating": 1, "price_range_usd": {"min": null, "max": null}, "phone": "+39 0372 457835", "address": "Via Uberto Pallavicino 4, 26100 Cremona Italy", "detailed_address": {"street": "Via Uberto Pallavicino 4", "city": "Cremona", "postal_code": "26100", "state": null, "country": "Italy"}, "ranking": {"current_rank": 17, "total": 17}, "featured_image": null, "latitude": 45.13637, "longitude": 10.03045, "amenities": [], "providers": []}, {"id": 23101863, "name": "Zanzarina D'oro", "link": "https://www.tripadvisor.com/Hotel_Review-g187831-d23101863-Reviews-Zanzarina_D_oro-Cremona_Province_of_Cremona_Lombardy.html", "reviews": 1, "rating": 2, "price_range_usd": {"min": 81, "max": 88}, "phone": "+39 342 555 1193", "address": "Via Case Sparse 1, 26030 Cremona Italy", "detailed_address": {"street": "Via Case Sparse 1", "city": "Cremona", "postal_code": "26030", "state": null, "country": "Italy"}, "ranking": {"current_rank": 10, "total": 10}, "featured_image": null, "latitude": 45.111126, "longitude": 10.037274, "amenities": [], "providers": []}, {"id": 23820946, "name": "La dama con l'ermellino B&B", "link": "https://www.tripadvisor.com/Hotel_Review-g187831-d23820946-Reviews-La_dama_con_l_ermellino_B_B-Cremona_Province_of_Cremona_Lombardy.html", "reviews": 0, "rating": 0, "price_range_usd": {"min": 79, "max": 89}, "phone": null, "address": "5 SP343R, 26037 Cremona Italy", "detailed_address": {"street": "5 SP343R", "city": "Cremona", "postal_code": "26037", "state": null, "country": "Italy"}, "ranking": null, "featured_image": null, "latitude": 45.066944, "longitude": 10.375602, "amenities": [], "providers": []}, {"id": 21386487, "name": "At Home in Cremona", "link": "https://www.tripadvisor.com/Hotel_Review-g187831-d21386487-Reviews-At_Home_in_Cremona-Cremona_Province_of_Cremona_Lombardy.html", "reviews": 0, "rating": 0, "price_range_usd": {"min": 73, "max": 88}, "phone": null, "address": "Via Buoso da Dovara 10, 26100 Cremona Italy", "detailed_address": {"street": "Via Buoso da Dovara 10", "city": "Cremona", "postal_code": "26100", "state": null, "country": "Italy"}, "ranking": null, "featured_image": null, "latitude": 45.13424, "longitude": 10.03509, "amenities": [], "providers": []}, {"id": 23188389, "name": "B&B La stazione", "link": "https://www.tripadvisor.com/Hotel_Review-g187831-d23188389-Reviews-B_B_La_stazione-Cremona_Province_of_Cremona_Lombardy.html", "reviews": 0, "rating": 0, "price_range_usd": {"min": 92, "max": 111}, "phone": "+39 393 137 7653", "address": "Via Ferruccio Ghinaglia 29, 26100 Cremona Italy", "detailed_address": {"street": "Via Ferruccio Ghinaglia 29", "city": "Cremona", "postal_code": "26100", "state": null, "country": "Italy"}, "ranking": null, "featured_image": null, "latitude": 45.142406, "longitude": 10.013698, "amenities": [], "providers": []}, {"id": 1392003, "name": "Hotel Este", "link": "https://www.tripadvisor.com/Hotel_Review-g187831-d1392003-Reviews-Hotel_Este-Cremona_Province_of_Cremona_Lombardy.html", "reviews": 0, "rating": 0, "price_range_usd": {"min": null, "max": null}, "phone": "+39 0372 20796", "address": "Viale Po' 131, 26100 Cremona Italy", "detailed_address": {"street": "Viale Po' 131", "city": "Cremona", "postal_code": "26100", "state": null, "country": "Italy"}, "ranking": null, "featured_image": null, "latitude": 45.13061, "longitude": 10.0001, "amenities": [], "providers": []}, {"id": 8141040, "name": "Vita Privata Home Gallery & House Hotel", "link": "https://www.tripadvisor.com/Hotel_Review-g187831-d8141040-Reviews-Vita_Privata_Home_Gallery_House_Hotel-Cremona_Province_of_Cremona_Lombardy.html", "reviews": 0, "rating": 0, "price_range_usd": {"min": null, "max": null}, "phone": null, "address": "Corso Giacomo Matteotti 31, 26100 Cremona Italy", "detailed_address": {"street": "Corso Giacomo Matteotti 31", "city": "Cremona", "postal_code": "26100", "state": null, "country": "Italy"}, "ranking": null, "featured_image": null, "latitude": 45.13635, "longitude": 10.03014, "amenities": [], "providers": []}, {"id": 500950, "name": "Il Vicolo", "link": "https://www.tripadvisor.com/Hotel_Review-g187831-d500950-Reviews-Il_Vicolo-Cremona_Province_of_Cremona_Lombardy.html", "reviews": 0, "rating": 0, "price_range_usd": {"min": null, "max": null}, "phone": "", "address": "Via Seletti 19 Busseto, 43011 Cremona Italy", "detailed_address": {"street": "Via Seletti 19, Busseto", "city": "Cremona", "postal_code": "43011", "state": null, "country": "Italy"}, "ranking": null, "featured_image": null, "latitude": 44.97999, "longitude": 10.04092, "amenities": [], "providers": []}, {"id": 32790015, "name": "Segui Le Note Della Tua Vita", "link": "https://www.tripadvisor.com/Hotel_Review-g187831-d32790015-Reviews-Segui_Le_Note_Della_Tua_Vita-Cremona_Province_of_Cremona_Lombardy.html", "reviews": 0, "rating": 0, "price_range_usd": {"min": 87, "max": 109}, "phone": "+39 333 106 8488", "address": "26 Via Ferruccio Ghinaglia, 26100 Cremona Italy", "detailed_address": {"street": "26 Via Ferruccio Ghinaglia", "city": "Cremona", "postal_code": "26100", "state": null, "country": "Italy"}, "ranking": null, "featured_image": null, "latitude": 45.142155, "longitude": 10.012997, "amenities": [], "providers": []}, {"id": 19097230, "name": "B&B La Casa Del Nonno", "link": "https://www.tripadvisor.com/Hotel_Review-g187831-d19097230-Reviews-B_B_La_Casa_Del_Nonno-Cremona_Province_of_Cremona_Lombardy.html", "reviews": 0, "rating": 0, "price_range_usd": {"min": 70, "max": 77}, "phone": "+39 333 829 4174", "address": "Via Battaglione 71, 26100 Cremona Italy", "detailed_address": {"street": "Via Battaglione 71", "city": "Cremona", "postal_code": "26100", "state": null, "country": "Italy"}, "ranking": null, "featured_image": null, "latitude": 45.12061, "longitude": 10.0581, "amenities": [], "providers": []}]}, "error": null}