{"data": {"link": "https://www.tripadvisor.com/Hotels-g187836-oa30-Lecco_Province_of_Lecco_Lombardy-Hotels.html", "total_pages": 7, "current_page": 2, "total_items_count": 200, "items_count": 30, "results": [{"id": 2040528, "name": "Hotel Ristorante Dogana Vecchia", "link": "https://www.tripadvisor.com/Hotel_Review-g187836-d2040528-Reviews-Hotel_Ristorante_Dogana_Vecchia-Lecco_Province_of_Lecco_Lombardy.html", "reviews": 19, "rating": 4, "price_range_usd": {"min": null, "max": null}, "phone": "+39 0341 211198", "address": "Via Provinciale, 23 Civate Lecco, 23862 Lecco Italy", "detailed_address": {"street": "Via Provinciale, 23, Civate Lecco", "city": "Lecco", "postal_code": "23862", "state": null, "country": "Italy"}, "ranking": {"current_rank": 5, "total": 7}, "featured_image": null, "latitude": 45.82835, "longitude": 9.34733, "amenities": ["Restaurant", "Bar/Lounge"], "providers": []}, {"id": 2540303, "name": "B&B Il Melograno", "link": "https://www.tripadvisor.com/Hotel_Review-g187836-d2540303-Reviews-B_B_Il_Melograno-Lecco_Province_of_Lecco_Lombardy.html", "reviews": 14, "rating": 4.5, "price_range_usd": {"min": null, "max": null}, "phone": "+39 0341 281785", "address": "Via Francesco Petrarca 17, 23900 Lecco Italy", "detailed_address": {"street": "Via Francesco Petrarca 17", "city": "Lecco", "postal_code": "23900", "state": null, "country": "Italy"}, "ranking": {"current_rank": 13, "total": 22}, "featured_image": null, "latitude": 45.86252, "longitude": 9.38968, "amenities": [], "providers": []}, {"id": 1945796, "name": "Hotel Ristorante Pizzeria Caviate", "link": "https://www.tripadvisor.com/Hotel_Review-g187836-d1945796-Reviews-Hotel_Ristorante_Pizzeria_Caviate-Lecco_Province_of_Lecco_Lombardy.html", "reviews": 21, "rating": 3.5, "price_range_usd": {"min": null, "max": null}, "phone": "+39 0341 367583", "address": "Lungolario Piave 17, 23900 Lecco Italy", "detailed_address": {"street": "Lungolario Piave 17", "city": "Lecco", "postal_code": "23900", "state": null, "country": "Italy"}, "ranking": {"current_rank": 6, "total": 7}, "featured_image": null, "latitude": 45.86755, "longitude": 9.3796, "amenities": ["Free Wifi", "Free parking", "Restaurant"], "providers": []}, {"id": 12346112, "name": "B&B La Casa dei Fiori di Cecilia", "link": "https://www.tripadvisor.com/Hotel_Review-g187836-d12346112-Reviews-B_B_La_Casa_dei_Fiori_di_Cecilia-Lecco_Province_of_Lecco_Lombardy.html", "reviews": 6, "rating": 5, "price_range_usd": {"min": null, "max": null}, "phone": "+39 338 191 3351", "address": "Via Paolino Dei Morti 12, 23900 Lecco Italy", "detailed_address": {"street": "Via Paolino Dei Morti 12", "city": "Lecco", "postal_code": "23900", "state": null, "country": "Italy"}, "ranking": {"current_rank": 6, "total": 25}, "featured_image": null, "latitude": 45.859978, "longitude": 9.410942, "amenities": ["Free Wifi", "Breakfast included"], "providers": []}, {"id": 8018003, "name": "Villa Puccini B&B", "link": "https://www.tripadvisor.com/Hotel_Review-g187836-d8018003-Reviews-Villa_Puccini_B_B-Lecco_Province_of_Lecco_Lombardy.html", "reviews": 64, "rating": 4, "price_range_usd": {"min": null, "max": null}, "phone": "+39 338 271 2477", "address": "Via Giacomo Puccini n. 8, 23900 Lecco Italy", "detailed_address": {"street": "Via Giacomo Puccini n. 8", "city": "Lecco", "postal_code": "23900", "state": null, "country": "Italy"}, "ranking": {"current_rank": 15, "total": 22}, "featured_image": null, "latitude": 45.82765, "longitude": 9.41855, "amenities": ["Free Wifi", "Free parking", "Breakfast included", "Bar/Lounge"], "providers": []}, {"id": 4232357, "name": "Rifugio Marchett", "link": "https://www.tripadvisor.com/Hotel_Review-g187836-d4232357-Reviews-Rifugio_Marchett-Lecco_Province_of_Lecco_Lombardy.html", "reviews": 120, "rating": 3.5, "price_range_usd": {"min": null, "max": null}, "phone": null, "address": "Localita Piani d'Erna, 23900 Lecco Italy", "detailed_address": {"street": "Localita Piani d'Erna", "city": "Lecco", "postal_code": "23900", "state": null, "country": "Italy"}, "ranking": {"current_rank": 8, "total": 25}, "featured_image": null, "latitude": 45.870373, "longitude": 9.449487, "amenities": ["Restaurant", "Pets Allowed", "Bar/Lounge"], "providers": []}, {"id": 7035805, "name": "B&B Laghe'", "link": "https://www.tripadvisor.com/Hotel_Review-g187836-d7035805-Reviews-B_B_Laghe-Lecco_Province_of_Lecco_Lombardy.html", "reviews": 7, "rating": 4.5, "price_range_usd": {"min": 85, "max": 86}, "phone": "+39 340 246 9592", "address": "Via Cesare Cantu' 12, 23900 Lecco Italy", "detailed_address": {"street": "Via Cesare Cantu' 12", "city": "Lecco", "postal_code": "23900", "state": null, "country": "Italy"}, "ranking": {"current_rank": 16, "total": 22}, "featured_image": null, "latitude": 45.85077, "longitude": 9.38735, "amenities": [], "providers": []}, {"id": 6644013, "name": "Sul Lago Dorato", "link": "https://www.tripadvisor.com/Hotel_Review-g187836-d6644013-Reviews-Sul_Lago_Dorato-Lecco_Province_of_Lecco_Lombardy.html", "reviews": 9, "rating": 4, "price_range_usd": {"min": null, "max": null}, "phone": "+39 329 306 6603", "address": "Via Ai Poggi 94/a, 23900 Lecco Italy", "detailed_address": {"street": "Via Ai Poggi 94/a", "city": "Lecco", "postal_code": "23900", "state": null, "country": "Italy"}, "ranking": {"current_rank": 17, "total": 22}, "featured_image": null, "latitude": 45.86102, "longitude": 9.41667, "amenities": [], "providers": []}, {"id": 16640173, "name": "Casa Vacanza Lago Lecco", "link": "https://www.tripadvisor.com/Hotel_Review-g187836-d16640173-Reviews-Casa_Vacanza_Lago_Lecco-Lecco_Province_of_Lecco_Lombardy.html", "reviews": 3, "rating": 4.5, "price_range_usd": {"min": null, "max": null}, "phone": null, "address": "Corso Martiri della Liberazione 134/140, 23900 Lecco Italy", "detailed_address": {"street": "Corso Martiri della Liberazione 134/140", "city": "Lecco", "postal_code": "23900", "state": null, "country": "Italy"}, "ranking": {"current_rank": 10, "total": 25}, "featured_image": null, "latitude": 45.84851, "longitude": 9.39585, "amenities": ["Bar/Lounge"], "providers": []}, {"id": 15221357, "name": "Casa Amata", "link": "https://www.tripadvisor.com/Hotel_Review-g187836-d15221357-Reviews-Casa_Amata-Lecco_Province_of_Lecco_Lombardy.html", "reviews": 3, "rating": 5, "price_range_usd": {"min": 132, "max": 134}, "phone": null, "address": "Via Roma 45, 23900 Lecco Italy", "detailed_address": {"street": "Via Roma 45", "city": "Lecco", "postal_code": "23900", "state": null, "country": "Italy"}, "ranking": {"current_rank": 11, "total": 25}, "featured_image": null, "latitude": 45.85346, "longitude": 9.39053, "amenities": ["Free Wifi", "Free parking"], "providers": []}, {"id": 7085073, "name": "Martin & Marianna B&B", "link": "https://www.tripadvisor.com/Hotel_Review-g187836-d7085073-Reviews-Martin_Marianna_B_B-Lecco_Province_of_Lecco_Lombardy.html", "reviews": 3, "rating": 4.5, "price_range_usd": {"min": null, "max": null}, "phone": "+39 331 279 0125", "address": "Corso Giacomo Matteotti 17, 23900 Lecco Italy", "detailed_address": {"street": "Corso Giacomo Matteotti 17", "city": "Lecco", "postal_code": "23900", "state": null, "country": "Italy"}, "ranking": {"current_rank": 14, "total": 25}, "featured_image": null, "latitude": 45.85877, "longitude": 9.39569, "amenities": [], "providers": []}, {"id": 2337427, "name": "B&B La Castagna", "link": "https://www.tripadvisor.com/Hotel_Review-g187836-d2337427-Reviews-B_B_La_Castagna-Lecco_Province_of_Lecco_Lombardy.html", "reviews": 3, "rating": 4.5, "price_range_usd": {"min": null, "max": null}, "phone": "+39 333 7273 7588", "address": "Via Dei Partigiani 36, 23900 Lecco Italy", "detailed_address": {"street": "Via Dei Partigiani 36", "city": "Lecco", "postal_code": "23900", "state": null, "country": "Italy"}, "ranking": {"current_rank": 20, "total": 22}, "featured_image": null, "latitude": 45.86622, "longitude": 9.40056, "amenities": ["Free Wifi", "Breakfast included"], "providers": []}, {"id": 15631971, "name": "Artdeco 7", "link": "https://www.tripadvisor.com/Hotel_Review-g187836-d15631971-Reviews-Artdeco_7-Lecco_Province_of_Lecco_Lombardy.html", "reviews": 6, "rating": 3.5, "price_range_usd": {"min": 94, "max": 121}, "phone": "+39 366 230 8719", "address": "Via Pescatori 7, 23900 Lecco Italy", "detailed_address": {"street": "Via Pescatori 7", "city": "Lecco", "postal_code": "23900", "state": null, "country": "Italy"}, "ranking": {"current_rank": 15, "total": 25}, "featured_image": null, "latitude": 45.84496, "longitude": 9.39846, "amenities": [], "providers": []}, {"id": 15234703, "name": "Borgo Dei Pescatori", "link": "https://www.tripadvisor.com/Hotel_Review-g187836-d15234703-Reviews-Borgo_Dei_Pescatori-Lecco_Province_of_Lecco_Lombardy.html", "reviews": 4, "rating": 4, "price_range_usd": {"min": null, "max": null}, "phone": "+39 348 271 7717", "address": "Via Plava 11, 23900 Lecco Italy", "detailed_address": {"street": "Via Plava 11", "city": "Lecco", "postal_code": "23900", "state": null, "country": "Italy"}, "ranking": {"current_rank": 17, "total": 25}, "featured_image": null, "latitude": 45.8439, "longitude": 9.39952, "amenities": ["Free Wifi"], "providers": []}, {"id": 12173569, "name": "Cermenati 13", "link": "https://www.tripadvisor.com/Hotel_Review-g187836-d12173569-Reviews-Cermenati_13-Lecco_Province_of_Lecco_Lombardy.html", "reviews": 1, "rating": 5, "price_range_usd": {"min": null, "max": null}, "phone": null, "address": "Via Cermenati 13, 23900 Lecco Italy", "detailed_address": {"street": "Via Cermenati 13", "city": "Lecco", "postal_code": "23900", "state": null, "country": "Italy"}, "ranking": {"current_rank": 18, "total": 25}, "featured_image": null, "latitude": 45.85594, "longitude": 9.38908, "amenities": ["Bar/Lounge"], "providers": []}, {"id": 8683049, "name": "L'acero Rosso B&B", "link": "https://www.tripadvisor.com/Hotel_Review-g187836-d8683049-Reviews-L_acero_Rosso_B_B-Lecco_Province_of_Lecco_Lombardy.html", "reviews": 5, "rating": 3.5, "price_range_usd": {"min": null, "max": null}, "phone": "+39 347 933 3559", "address": "Via Don Giuseppe Pozzi 24, 23900 Lecco Italy", "detailed_address": {"street": "Via Don Giuseppe Pozzi 24", "city": "Lecco", "postal_code": "23900", "state": null, "country": "Italy"}, "ranking": {"current_rank": 21, "total": 22}, "featured_image": null, "latitude": 45.86131, "longitude": 9.39882, "amenities": ["Free Wifi", "Free parking", "Pets Allowed"], "providers": []}, {"id": 4925186, "name": "B&B Villa Erminia", "link": "https://www.tripadvisor.com/Hotel_Review-g187836-d4925186-Reviews-B_B_Villa_Erminia-Lecco_Province_of_Lecco_Lombardy.html", "reviews": 1, "rating": 5, "price_range_usd": {"min": null, "max": null}, "phone": "+39 0341 255376", "address": "Corso Promessi Sposi 174, 23900 Lecco Italy", "detailed_address": {"street": "Corso Promessi Sposi 174", "city": "Lecco", "postal_code": "23900", "state": null, "country": "Italy"}, "ranking": {"current_rank": 19, "total": 25}, "featured_image": null, "latitude": 45.85886, "longitude": 9.41137, "amenities": [], "providers": []}, {"id": 6419987, "name": "My Room Center", "link": "https://www.tripadvisor.com/Hotel_Review-g187836-d6419987-Reviews-My_Room_Center-Lecco_Province_of_Lecco_Lombardy.html", "reviews": 31, "rating": 3, "price_range_usd": {"min": null, "max": null}, "phone": null, "address": "Via Palestro 30, 23900 Lecco Italy", "detailed_address": {"street": "Via Palestro 30", "city": "Lecco", "postal_code": "23900", "state": null, "country": "Italy"}, "ranking": {"current_rank": 20, "total": 25}, "featured_image": null, "latitude": 45.86049, "longitude": 9.39571, "amenities": ["Free Wifi", "Airport transportation", "Pets Allowed"], "providers": []}, {"id": 17804262, "name": "Appartamento Cavour", "link": "https://www.tripadvisor.com/Hotel_Review-g187836-d17804262-Reviews-Appartamento_Cavour-Lecco_Province_of_Lecco_Lombardy.html", "reviews": 1, "rating": 2, "price_range_usd": {"min": null, "max": null}, "phone": null, "address": "Via Camillo Benso di Cavour 88, 23900 Lecco Italy", "detailed_address": {"street": "Via Camillo Benso di Cavour 88", "city": "Lecco", "postal_code": "23900", "state": null, "country": "Italy"}, "ranking": {"current_rank": 21, "total": 25}, "featured_image": null, "latitude": 45.85508, "longitude": 9.39233, "amenities": [], "providers": []}, {"id": 27110662, "name": "B&B Del Bosco E Del Lago Elimar", "link": "https://www.tripadvisor.com/Hotel_Review-g187836-d27110662-Reviews-B_B_Del_Bosco_E_Del_Lago_Elimar-Lecco_Province_of_Lecco_Lombardy.html", "reviews": 1, "rating": 2, "price_range_usd": {"min": 75, "max": 76}, "phone": "+39 347 504 8813", "address": "Corso Promessi Sposi 20, 23900 Lecco Italy", "detailed_address": {"street": "Corso Promessi Sposi 20", "city": "Lecco", "postal_code": "23900", "state": null, "country": "Italy"}, "ranking": {"current_rank": 22, "total": 22}, "featured_image": null, "latitude": 45.85352, "longitude": 9.40156, "amenities": [], "providers": []}, {"id": 15573015, "name": "Appartamento Gradisca", "link": "https://www.tripadvisor.com/Hotel_Review-g187836-d15573015-Reviews-Appartamento_Gradisca-Lecco_Province_of_Lecco_Lombardy.html", "reviews": 1, "rating": 1, "price_range_usd": {"min": 145, "max": 152}, "phone": null, "address": "Via Gradisca, 23900 Lecco Italy", "detailed_address": {"street": "Via Gradisca", "city": "Lecco", "postal_code": "23900", "state": null, "country": "Italy"}, "ranking": {"current_rank": 22, "total": 25}, "featured_image": null, "latitude": 45.85517, "longitude": 9.41167, "amenities": [], "providers": []}, {"id": 6578103, "name": "Be Happy", "link": "https://www.tripadvisor.com/Hotel_Review-g187836-d6578103-Reviews-Be_Happy-Lecco_Province_of_Lecco_Lombardy.html", "reviews": 3, "rating": 1.5, "price_range_usd": {"min": null, "max": null}, "phone": "+39 0341 493657", "address": "Corso Promessi Sposi 21A, 23900 Lecco Italy", "detailed_address": {"street": "Corso Promessi Sposi 21A", "city": "Lecco", "postal_code": "23900", "state": null, "country": "Italy"}, "ranking": {"current_rank": 23, "total": 25}, "featured_image": null, "latitude": 45.85604, "longitude": 9.40503, "amenities": ["Free Wifi", "Free parking", "Restaurant", "Pets Allowed", "Bar/Lounge"], "providers": []}, {"id": 23187917, "name": "Lecco Center Rooms", "link": "https://www.tripadvisor.com/Hotel_Review-g187836-d23187917-Reviews-Lecco_Center_Rooms-Lecco_Province_of_Lecco_Lombardy.html", "reviews": 1, "rating": 1, "price_range_usd": {"min": null, "max": null}, "phone": null, "address": "Via Arlenico 28, 23900 Lecco Italy", "detailed_address": {"street": "Via Arlenico 28", "city": "Lecco", "postal_code": "23900", "state": null, "country": "Italy"}, "ranking": {"current_rank": 24, "total": 25}, "featured_image": null, "latitude": 45.85015, "longitude": 9.39926, "amenities": [], "providers": []}, {"id": 7274353, "name": "My Room Center Station", "link": "https://www.tripadvisor.com/Hotel_Review-g187836-d7274353-Reviews-My_Room_Center_Station-Lecco_Province_of_Lecco_Lombardy.html", "reviews": 13, "rating": 2, "price_range_usd": {"min": null, "max": null}, "phone": null, "address": "Via Camillo Benso di Cavour 88, 23900 Lecco Italy", "detailed_address": {"street": "Via Camillo Benso di Cavour 88", "city": "Lecco", "postal_code": "23900", "state": null, "country": "Italy"}, "ranking": {"current_rank": 25, "total": 25}, "featured_image": null, "latitude": 45.85508, "longitude": 9.39233, "amenities": ["Free Wifi", "Pets Allowed"], "providers": []}, {"id": 27695726, "name": "Apparthotel Casa Ideale Lecco", "link": "https://www.tripadvisor.com/Hotel_Review-g187836-d27695726-Reviews-Apparthotel_Casa_Ideale_Lecco-Lecco_Province_of_Lecco_Lombardy.html", "reviews": 0, "rating": 0, "price_range_usd": {"min": 44, "max": 76}, "phone": "+39 393 747 4270", "address": "Via Gorizia 54, 23900 Lecco Italy", "detailed_address": {"street": "Via Gorizia 54", "city": "Lecco", "postal_code": "23900", "state": null, "country": "Italy"}, "ranking": null, "featured_image": null, "latitude": 45.866756, "longitude": 9.398668, "amenities": [], "providers": []}, {"id": 27140461, "name": "Lecco Lake", "link": "https://www.tripadvisor.com/Hotel_Review-g187836-d27140461-Reviews-Lecco_Lake-Lecco_Province_of_Lecco_Lombardy.html", "reviews": 0, "rating": 0, "price_range_usd": {"min": 94, "max": 166}, "phone": "+39 391 763 5695", "address": "Piazza XX Settembre, 23900 Lecco Italy", "detailed_address": {"street": "Piazza XX Settembre", "city": "Lecco", "postal_code": "23900", "state": null, "country": "Italy"}, "ranking": null, "featured_image": null, "latitude": 45.8554, "longitude": 9.38978, "amenities": [], "providers": []}, {"id": 28109338, "name": "La Casa Sul Lago Lecco", "link": "https://www.tripadvisor.com/Hotel_Review-g187836-d28109338-Reviews-La_Casa_Sul_Lago_Lecco-Lecco_Province_of_Lecco_Lombardy.html", "reviews": 0, "rating": 0, "price_range_usd": {"min": 106, "max": 261}, "phone": "+39 0341 353680", "address": "Piazza XX Settembre, 15, 23900 Lecco Italy", "detailed_address": {"street": "Piazza XX Settembre, 15", "city": "Lecco", "postal_code": "23900", "state": null, "country": "Italy"}, "ranking": null, "featured_image": null, "latitude": 45.855537, "longitude": 9.389643, "amenities": [], "providers": []}, {"id": 25412818, "name": "La Casa nel Parco Lecco", "link": "https://www.tripadvisor.com/Hotel_Review-g187836-d25412818-Reviews-La_Casa_nel_Parco_Lecco-Lecco_Province_of_Lecco_Lombardy.html", "reviews": 0, "rating": 0, "price_range_usd": {"min": 156, "max": 159}, "phone": "+39 0341 353680", "address": "17 Corso Giacomo Matteotti, 23900 Lecco Italy", "detailed_address": {"street": "17 Corso Giacomo Matteotti", "city": "Lecco", "postal_code": "23900", "state": null, "country": "Italy"}, "ranking": null, "featured_image": null, "latitude": 45.8587, "longitude": 9.39586, "amenities": [], "providers": []}, {"id": 25233751, "name": "La Pineta - Le Casette di Osvaldo", "link": "https://www.tripadvisor.com/Hotel_Review-g187836-d25233751-Reviews-La_Pineta_Le_Casette_di_Osvaldo-Lecco_Province_of_Lecco_Lombardy.html", "reviews": 0, "rating": 0, "price_range_usd": {"min": 71, "max": 106}, "phone": null, "address": "Via Valsassina 32, 23900 Lecco Italy", "detailed_address": {"street": "Via Valsassina 32", "city": "Lecco", "postal_code": "23900", "state": null, "country": "Italy"}, "ranking": null, "featured_image": null, "latitude": 45.885796, "longitude": 9.413123, "amenities": [], "providers": []}, {"id": 21232212, "name": "Galleria Roma Apartments", "link": "https://www.tripadvisor.com/Hotel_Review-g187836-d21232212-Reviews-Galleria_Roma_Apartments-Lecco_Province_of_Lecco_Lombardy.html", "reviews": 0, "rating": 0, "price_range_usd": {"min": 90, "max": 142}, "phone": null, "address": "Piazza Giuseppe Mazzini 8, 23900 Lecco Italy", "detailed_address": {"street": "Piazza Giuseppe Mazzini 8", "city": "Lecco", "postal_code": "23900", "state": null, "country": "Italy"}, "ranking": null, "featured_image": null, "latitude": 45.85312, "longitude": 9.390696, "amenities": [], "providers": []}]}, "error": null}