{"data": {"link": "https://www.tripadvisor.com/Hotels-g187871-Verona_Province_of_Verona_Veneto-Hotels.html", "total_pages": 38, "current_page": 1, "total_items_count": 1111, "items_count": 33, "results": [{"id": 561455, "name": "Corte San Mattia - Agriturismo Verona", "link": "https://www.tripadvisor.com/Hotel_Review-g187871-d561455-Reviews-Corte_San_Mattia_Agriturismo_Verona-Verona_Province_of_Verona_Veneto.html", "reviews": 1622, "rating": 4.5, "price_range_usd": {"min": 57, "max": 126}, "phone": "+39 045 913797", "address": "Via Santa Giuliana 2/A, 37128, Verona Italy", "detailed_address": {"street": "Via Santa Giuliana 2/A", "city": null, "postal_code": "37128", "state": null, "country": "Italy"}, "ranking": {"current_rank": 4, "total": 344}, "featured_image": null, "latitude": 45.465656, "longitude": 10.999154, "amenities": ["Free Wifi", "Free parking", "Breakfast included", "Restaurant", "Bar/Lounge"], "providers": ["Booking.com"]}, {"id": 232955, "name": "Hotel Accademia", "link": "https://www.tripadvisor.com/Hotel_Review-g187871-d232955-Reviews-Hotel_Accademia-Verona_Province_of_Verona_Veneto.html", "reviews": 2441, "rating": 4.5, "price_range_usd": {"min": 130, "max": 202}, "phone": "+39 045 596222", "address": "Via Scala, 12, 37121, Verona Italy", "detailed_address": {"street": "Via Scala, 12", "city": null, "postal_code": "37121", "state": null, "country": "Italy"}, "ranking": {"current_rank": 4, "total": 87}, "featured_image": null, "latitude": 45.441223, "longitude": 10.996419, "amenities": ["Free Wifi", "Breakfast included", "Airport transportation", "Room service", "Bar/Lounge"], "providers": ["Tripadvisor"]}, {"id": 238863, "name": "Hotel Milano & SPA", "link": "https://www.tripadvisor.com/Hotel_Review-g187871-d238863-Reviews-Hotel_Milano_SPA-Verona_Province_of_Verona_Veneto.html", "reviews": 3253, "rating": 4.5, "price_range_usd": {"min": 107, "max": 179}, "phone": "+39 045 596011", "address": "Vicolo Tre Marchetti 11, 37121, Verona Italy", "detailed_address": {"street": "Vicolo Tre Marchetti 11", "city": null, "postal_code": "37121", "state": null, "country": "Italy"}, "ranking": {"current_rank": 12, "total": 87}, "featured_image": null, "latitude": 45.440002, "longitude": 10.994497, "amenities": ["Free Wifi", "Breakfast included", "Room service", "Pets Allowed", "Bar/Lounge"], "providers": ["Booking.com"]}, {"id": 8611753, "name": "Sole Hotel Verona", "link": "https://www.tripadvisor.com/Hotel_Review-g187871-d8611753-Reviews-Sole_Hotel_Verona-Verona_Province_of_Verona_Veneto.html", "reviews": 392, "rating": 4.5, "price_range_usd": {"min": 75, "max": 137}, "phone": "+39 045 923 5282", "address": "Piazzale XXV Aprile 4B Stazione Ferroviaria Porta Nuova Comparto Ferroviario FS, 37138, Verona Italy", "detailed_address": {"street": "Piazzale XXV Aprile 4B Stazione Ferroviaria Porta Nuova, Comparto Ferroviario FS", "city": null, "postal_code": "37138", "state": null, "country": "Italy"}, "ranking": {"current_rank": 22, "total": 466}, "featured_image": null, "latitude": 45.429363, "longitude": 10.980268, "amenities": ["Free Wifi", "Breakfast included", "Bar/Lounge"], "providers": ["Booking.com"]}, {"id": 232956, "name": "Novo Hotel Rossi", "link": "https://www.tripadvisor.com/Hotel_Review-g187871-d232956-Reviews-Novo_Hotel_Rossi-Verona_Province_of_Verona_Veneto.html", "reviews": 2139, "rating": 4.5, "price_range_usd": {"min": 69, "max": 129}, "phone": "+39 045 569022", "address": "Via delle Coste 2, 37138, Verona Italy", "detailed_address": {"street": "Via delle Coste 2", "city": null, "postal_code": "37138", "state": null, "country": "Italy"}, "ranking": {"current_rank": 5, "total": 87}, "featured_image": null, "latitude": 45.429344, "longitude": 10.977827, "amenities": ["Free Wifi", "Pets Allowed", "Bar/Lounge"], "providers": ["Booking.com"]}, {"id": 205693, "name": "Hotel Leopardi", "link": "https://www.tripadvisor.com/Hotel_Review-g187871-d205693-Reviews-Hotel_Leopardi-Verona_Province_of_Verona_Veneto.html", "reviews": 911, "rating": 4, "price_range_usd": {"min": 68, "max": 108}, "phone": "+39 045 810 1444", "address": "Via Giacomo Leopardi 16, 37138, Verona Italy", "detailed_address": {"street": "Via Giacomo Leopardi 16", "city": null, "postal_code": "37138", "state": null, "country": "Italy"}, "ranking": {"current_rank": 44, "total": 87}, "featured_image": null, "latitude": 45.44336, "longitude": 10.968959, "amenities": ["Free Wifi", "Free parking", "Breakfast included", "Restaurant", "Room service"], "providers": ["Booking.com"]}, {"id": 277415, "name": "Hotel San Pietro", "link": "https://www.tripadvisor.com/Hotel_Review-g187871-d277415-Reviews-Hotel_San_Pietro-Verona_Province_of_Verona_Veneto.html", "reviews": 302, "rating": 4, "price_range_usd": {"min": 121, "max": 156}, "phone": "+39 045 582600", "address": "Via Santa Teresa 1, 37135, Verona Italy", "detailed_address": {"street": "Via Santa Teresa 1", "city": null, "postal_code": "37135", "state": null, "country": "Italy"}, "ranking": {"current_rank": 29, "total": 87}, "featured_image": null, "latitude": 45.421333, "longitude": 10.985104, "amenities": ["Free Wifi", "Free parking", "Breakfast included", "Room service", "Bar/Lounge"], "providers": ["Booking.com"]}, {"id": 19415319, "name": "NH Collection Palazzo Verona", "link": "https://www.tripadvisor.com/Hotel_Review-g187871-d19415319-Reviews-NH_Collection_Palazzo_Verona-Verona_Province_of_Verona_Veneto.html", "reviews": 255, "rating": 4.5, "price_range_usd": {"min": 183, "max": 271}, "phone": "+39 045 806 2311", "address": "Via Adua 6/8, 37121, Verona Italy", "detailed_address": {"street": "Via Adua 6/8", "city": null, "postal_code": "37121", "state": null, "country": "Italy"}, "ranking": {"current_rank": 10, "total": 87}, "featured_image": null, "latitude": 45.44246, "longitude": 10.993714, "amenities": ["Free Wifi", "Restaurant", "Room service", "Bar/Lounge"], "providers": ["Booking.com"]}, {"id": 229041, "name": "Due Torri Hotel", "link": "https://www.tripadvisor.com/Hotel_Review-g187871-d229041-Reviews-Due_Torri_Hotel-Verona_Province_of_Verona_Veneto.html", "reviews": 1115, "rating": 4.5, "price_range_usd": {"min": 230, "max": 328}, "phone": "+39 045 595044", "address": "Piazza S. Anastasia, 4, 37121, Verona Italy", "detailed_address": {"street": "Piazza S. Anastasia, 4", "city": null, "postal_code": "37121", "state": null, "country": "Italy"}, "ranking": {"current_rank": 15, "total": 87}, "featured_image": null, "latitude": 45.444866, "longitude": 10.99959, "amenities": ["Free Wifi", "Breakfast included", "Restaurant", "Airport transportation", "Room service"], "providers": ["Booking.com"]}, {"id": 4403315, "name": "Relais Fra' Lorenzo", "link": "https://www.tripadvisor.com/Hotel_Review-g187871-d4403315-Reviews-Relais_Fra_Lorenzo-Verona_Province_of_Verona_Veneto.html", "reviews": 257, "rating": 4.5, "price_range_usd": {"min": 155, "max": 10301}, "phone": "+39 045 830 2362", "address": "Via Castello San Felice, 11, 37128, Verona Italy", "detailed_address": {"street": "Via Castello San Felice, 11", "city": null, "postal_code": "37128", "state": null, "country": "Italy"}, "ranking": {"current_rank": 15, "total": 466}, "featured_image": null, "latitude": 45.45483, "longitude": 11.005047, "amenities": ["Free Wifi", "Free parking", "Breakfast included", "Pool", "Outdoor pool"], "providers": ["Booking.com"]}, {"id": 228957, "name": "Hotel Leon d'Oro", "link": "https://www.tripadvisor.com/Hotel_Review-g187871-d228957-Reviews-Hotel_Leon_d_Oro-Verona_Province_of_Verona_Veneto.html", "reviews": 2131, "rating": 4, "price_range_usd": {"min": 101, "max": 130}, "phone": "+39 045 844 5140", "address": "Viale del Piave 5, 37135, Verona Italy", "detailed_address": {"street": "Viale del Piave 5", "city": null, "postal_code": "37135", "state": null, "country": "Italy"}, "ranking": {"current_rank": 50, "total": 87}, "featured_image": null, "latitude": 45.427975, "longitude": 10.987256, "amenities": ["Free Wifi", "Breakfast included", "Restaurant", "Room service", "Bar/Lounge"], "providers": ["Booking.com"]}, {"id": 561455, "name": "Corte San Mattia - Agriturismo Verona", "link": "https://www.tripadvisor.com/Hotel_Review-g187871-d561455-Reviews-Corte_San_Mattia_Agriturismo_Verona-Verona_Province_of_Verona_Veneto.html", "reviews": 1622, "rating": 4.5, "price_range_usd": {"min": 57, "max": 126}, "phone": "+39 045 913797", "address": "Via Santa Giuliana 2/A, 37128, Verona Italy", "detailed_address": {"street": "Via Santa Giuliana 2/A", "city": null, "postal_code": "37128", "state": null, "country": "Italy"}, "ranking": {"current_rank": 4, "total": 344}, "featured_image": null, "latitude": 45.465656, "longitude": 10.999154, "amenities": ["Free Wifi", "Free parking", "Breakfast included", "Restaurant", "Bar/Lounge"], "providers": ["Booking.com"]}, {"id": 628136, "name": "Musella Winery & Country Relais", "link": "https://www.tripadvisor.com/Hotel_Review-g187871-d628136-Reviews-Musella_Winery_Country_Relais-Verona_Province_of_Verona_Veneto.html", "reviews": 232, "rating": 4.5, "price_range_usd": {"min": 88, "max": 117}, "phone": "+39 335 729 4627", "address": "Via Ferrazzette 2 San Martino Buon Albergo, 37036, Verona Italy", "detailed_address": {"street": "Via Ferrazzette 2, San Martino Buon Albergo", "city": null, "postal_code": "37036", "state": null, "country": "Italy"}, "ranking": {"current_rank": 24, "total": 466}, "featured_image": null, "latitude": 45.43978, "longitude": 11.081193, "amenities": ["Free Wifi", "Free parking", "Breakfast included", "Pool", "Outdoor pool"], "providers": ["Booking.com"]}, {"id": 561455, "name": "Corte San Mattia - Agriturismo Verona", "link": "https://www.tripadvisor.com/Hotel_Review-g187871-d561455-Reviews-Corte_San_Mattia_Agriturismo_Verona-Verona_Province_of_Verona_Veneto.html", "reviews": 1622, "rating": 4.5, "price_range_usd": {"min": 57, "max": 126}, "phone": "+39 045 913797", "address": "Via Santa Giuliana 2/A, 37128, Verona Italy", "detailed_address": {"street": "Via Santa Giuliana 2/A", "city": null, "postal_code": "37128", "state": null, "country": "Italy"}, "ranking": {"current_rank": 4, "total": 344}, "featured_image": null, "latitude": 45.465656, "longitude": 10.999154, "amenities": ["Free Wifi", "Free parking", "Breakfast included", "Restaurant", "Bar/Lounge"], "providers": ["Booking.com"]}, {"id": 237436, "name": "Hotel Verona", "link": "https://www.tripadvisor.com/Hotel_Review-g187871-d237436-Reviews-Hotel_Verona-Verona_Province_of_Verona_Veneto.html", "reviews": 1129, "rating": 4.5, "price_range_usd": {"min": 102, "max": 145}, "phone": "+39 394 559 5944", "address": "Corso Porta Nuova 47-49, 37122, Verona Italy", "detailed_address": {"street": "Corso Porta Nuova 47-49", "city": null, "postal_code": "37122", "state": null, "country": "Italy"}, "ranking": {"current_rank": 26, "total": 87}, "featured_image": null, "latitude": 45.435448, "longitude": 10.990504, "amenities": ["Free Wifi", "Breakfast included", "Pets Allowed"], "providers": ["Booking.com"]}, {"id": 202677, "name": "Leonardo Hotel Verona", "link": "https://www.tripadvisor.com/Hotel_Review-g187871-d202677-Reviews-Leonardo_Hotel_Verona-Verona_Province_of_Verona_Veneto.html", "reviews": 1737, "rating": 3.5, "price_range_usd": {"min": 55, "max": 95}, "phone": "+39 045 903600", "address": "Via Enrico Fermi 11C, 37135, Verona Italy", "detailed_address": {"street": "Via Enrico Fermi 11C", "city": null, "postal_code": "37135", "state": null, "country": "Italy"}, "ranking": {"current_rank": 52, "total": 87}, "featured_image": null, "latitude": 45.40163, "longitude": 10.968666, "amenities": ["Free Wifi", "Free parking", "Restaurant", "Room service", "Pets Allowed"], "providers": ["Booking.com"]}, {"id": 2633596, "name": "Le Suite Di Giulietta", "link": "https://www.tripadvisor.com/Hotel_Review-g187871-d2633596-Reviews-Le_Suite_Di_Giulietta-Verona_Province_of_Verona_Veneto.html", "reviews": 240, "rating": 4.5, "price_range_usd": {"min": 134, "max": 198}, "phone": "+39 327 206 8209", "address": "Vicolo Crocioni 8, 37121, Verona Italy", "detailed_address": {"street": "Vicolo Crocioni 8", "city": null, "postal_code": "37121", "state": null, "country": "Italy"}, "ranking": {"current_rank": 43, "total": 466}, "featured_image": null, "latitude": 45.44216, "longitude": 10.998543, "amenities": ["Free Wifi", "Breakfast included"], "providers": ["Booking.com"]}, {"id": 237444, "name": "B&B Hotel Verona", "link": "https://www.tripadvisor.com/Hotel_Review-g187871-d237444-Reviews-B_B_Hotel_Verona-Verona_Province_of_Verona_Veneto.html", "reviews": 759, "rating": 4, "price_range_usd": {"min": 55, "max": 81}, "phone": "+39 045 820 0922", "address": "Via Enrico Fermi 13/B, 37135, Verona Italy", "detailed_address": {"street": "Via Enrico Fermi 13/B", "city": null, "postal_code": "37135", "state": null, "country": "Italy"}, "ranking": {"current_rank": 35, "total": 87}, "featured_image": null, "latitude": 45.398617, "longitude": 10.967006, "amenities": ["Free Wifi", "Pets Allowed"], "providers": ["Booking.com"]}, {"id": 12727605, "name": "Corte Realdi Suites", "link": "https://www.tripadvisor.com/Hotel_Review-g187871-d12727605-Reviews-Corte_Realdi_Suites-Verona_Province_of_Verona_Veneto.html", "reviews": 187, "rating": 4.5, "price_range_usd": {"min": 145, "max": 259}, "phone": "+39 392 927 6445", "address": "Via Mazzanti 3/a, 37121, Verona Italy", "detailed_address": {"street": "Via Mazzanti 3/a", "city": null, "postal_code": "37121", "state": null, "country": "Italy"}, "ranking": {"current_rank": 31, "total": 466}, "featured_image": null, "latitude": 45.443413, "longitude": 10.997521, "amenities": ["Free Wifi", "Airport transportation", "Pets Allowed"], "providers": ["Booking.com"]}, {"id": 1185882, "name": "Relais Balcone di Giulietta", "link": "https://www.tripadvisor.com/Hotel_Review-g187871-d1185882-Reviews-Relais_Balcone_di_Giulietta-Verona_Province_of_Verona_Veneto.html", "reviews": 900, "rating": 4.5, "price_range_usd": {"min": 167, "max": 284}, "phone": "+39 045 41555", "address": "Via Cappello 23 Cortile di Giulietta, 37121, Verona Italy", "detailed_address": {"street": "Via Cappello 23, Cortile di Giulietta", "city": null, "postal_code": "37121", "state": null, "country": "Italy"}, "ranking": {"current_rank": 17, "total": 466}, "featured_image": null, "latitude": 45.44189, "longitude": 10.998351, "amenities": ["Free Wifi", "Breakfast included", "Room service"], "providers": ["Booking.com"]}, {"id": 237438, "name": "Hotel Torcolo", "link": "https://www.tripadvisor.com/Hotel_Review-g187871-d237438-Reviews-Hotel_Torcolo-Verona_Province_of_Verona_Veneto.html", "reviews": 670, "rating": 4.5, "price_range_usd": {"min": 92, "max": 136}, "phone": "+39 045 800 7512", "address": "Vicolo Listone 3, 37121, Verona Italy", "detailed_address": {"street": "Vicolo Listone 3", "city": null, "postal_code": "37121", "state": null, "country": "Italy"}, "ranking": {"current_rank": 19, "total": 87}, "featured_image": null, "latitude": 45.4396, "longitude": 10.992194, "amenities": ["Free Wifi", "Pets Allowed"], "providers": ["Booking.com"]}, {"id": 237440, "name": "Hotel Mastino", "link": "https://www.tripadvisor.com/Hotel_Review-g187871-d237440-Reviews-Hotel_Mastino-Verona_Province_of_Verona_Veneto.html", "reviews": 1560, "rating": 3.5, "price_range_usd": {"min": 94, "max": 139}, "phone": "+39 045 595388", "address": "Corso Porta Nuova 16, 37122, Verona Italy", "detailed_address": {"street": "Corso Porta Nuova 16", "city": null, "postal_code": "37122", "state": null, "country": "Italy"}, "ranking": {"current_rank": 54, "total": 87}, "featured_image": null, "latitude": 45.437073, "longitude": 10.990956, "amenities": ["Free Wifi", "Breakfast included", "Pets Allowed"], "providers": ["Booking.com"]}, {"id": 205783, "name": "Hotel Maxim", "link": "https://www.tripadvisor.com/Hotel_Review-g187871-d205783-Reviews-Hotel_Maxim-Verona_Province_of_Verona_Veneto.html", "reviews": 1122, "rating": 3.5, "price_range_usd": {"min": 52, "max": 78}, "phone": "+39 045 840 1800", "address": "Via Carlo Belviglieri, 42, 37131, Verona Italy", "detailed_address": {"street": "Via Carlo Belviglieri, 42", "city": null, "postal_code": "37131", "state": null, "country": "Italy"}, "ranking": {"current_rank": 65, "total": 87}, "featured_image": null, "latitude": 45.43727, "longitude": 11.031403, "amenities": ["Free Wifi", "Free parking", "Breakfast included", "Room service", "Pets Allowed"], "providers": ["Booking.com"]}, {"id": 233923, "name": "Montresor Hotel Palace", "link": "https://www.tripadvisor.com/Hotel_Review-g187871-d233923-Reviews-Montresor_Hotel_Palace-Verona_Province_of_Verona_Veneto.html", "reviews": 1113, "rating": 4, "price_range_usd": {"min": 88, "max": 136}, "phone": "+39 045 575700", "address": "Via Luigi Galvani 19, 37138, Verona Italy", "detailed_address": {"street": "Via Luigi Galvani 19", "city": null, "postal_code": "37138", "state": null, "country": "Italy"}, "ranking": {"current_rank": 28, "total": 87}, "featured_image": null, "latitude": 45.444904, "longitude": 10.968586, "amenities": ["Free Wifi", "Restaurant", "Room service", "Pets Allowed", "Bar/Lounge"], "providers": ["Booking.com"]}, {"id": 9732952, "name": "Relais Empire", "link": "https://www.tripadvisor.com/Hotel_Review-g187871-d9732952-Reviews-Relais_Empire-Verona_Province_of_Verona_Veneto.html", "reviews": 661, "rating": 4.5, "price_range_usd": {"min": 95, "max": 142}, "phone": "+39 045 464 9275", "address": "Corso Porta Nuova 22, 37122, Verona Italy", "detailed_address": {"street": "Corso Porta Nuova 22", "city": null, "postal_code": "37122", "state": null, "country": "Italy"}, "ranking": {"current_rank": 18, "total": 466}, "featured_image": null, "latitude": 45.43525, "longitude": 10.989624, "amenities": ["Free Wifi", "Breakfast included", "Pets Allowed", "Spa"], "providers": ["Booking.com"]}, {"id": 12301186, "name": "Palazzo Monga Boutique Guesthouse", "link": "https://www.tripadvisor.com/Hotel_Review-g187871-d12301186-Reviews-Palazzo_Monga_Boutique_Guesthouse-Verona_Province_of_Verona_Veneto.html", "reviews": 64, "rating": 5, "price_range_usd": {"min": 249, "max": 475}, "phone": "+39 349 757 0079", "address": "Corso Porta Borsari 36, 37121, Verona Italy", "detailed_address": {"street": "Corso Porta Borsari 36", "city": null, "postal_code": "37121", "state": null, "country": "Italy"}, "ranking": {"current_rank": 55, "total": 466}, "featured_image": null, "latitude": 45.442413, "longitude": 10.994329, "amenities": ["Free Wifi", "Fitness center"], "providers": ["Booking.com"]}, {"id": 238854, "name": "Hotel Bologna", "link": "https://www.tripadvisor.com/Hotel_Review-g187871-d238854-Reviews-Hotel_Bologna-Verona_Province_of_Verona_Veneto.html", "reviews": 1039, "rating": 4.5, "price_range_usd": {"min": 113, "max": 188}, "phone": "+39 045 800 6830", "address": "Piazzetta Scalette Rubiani 3, 37121, Verona Italy", "detailed_address": {"street": "Piazzetta Scalette Rubiani 3", "city": null, "postal_code": "37121", "state": null, "country": "Italy"}, "ranking": {"current_rank": 21, "total": 87}, "featured_image": null, "latitude": 45.440086, "longitude": 10.993561, "amenities": ["Free Wifi", "Breakfast included", "Restaurant", "Room service", "Bar/Lounge"], "providers": ["Booking.com"]}, {"id": 6632197, "name": "Lady Verona", "link": "https://www.tripadvisor.com/Hotel_Review-g187871-d6632197-Reviews-Lady_Verona-Verona_Province_of_Verona_Veneto.html", "reviews": 180, "rating": 4.5, "price_range_usd": {"min": 106, "max": 158}, "phone": "+39 045 223 6166", "address": "Via Armando Diaz 24, 37121, Verona Italy", "detailed_address": {"street": "Via Armando Diaz 24", "city": null, "postal_code": "37121", "state": null, "country": "Italy"}, "ranking": {"current_rank": 53, "total": 466}, "featured_image": null, "latitude": 45.44278, "longitude": 10.992403, "amenities": ["Free Wifi", "Pets Allowed"], "providers": ["Booking.com"]}, {"id": 233907, "name": "Hotel Italia", "link": "https://www.tripadvisor.com/Hotel_Review-g187871-d233907-Reviews-Hotel_Italia-Verona_Province_of_Verona_Veneto.html", "reviews": 492, "rating": 4, "price_range_usd": {"min": 113, "max": 153}, "phone": "+39 045 918088", "address": "Via Goffredo Mameli 58/66, 37126, Verona Italy", "detailed_address": {"street": "Via Goffredo Mameli 58/66", "city": null, "postal_code": "37126", "state": null, "country": "Italy"}, "ranking": {"current_rank": 37, "total": 87}, "featured_image": null, "latitude": 45.451168, "longitude": 10.989918, "amenities": ["Free Wifi", "Restaurant", "Room service", "Pets Allowed", "Bar/Lounge"], "providers": ["Booking.com"]}, {"id": 233894, "name": "Hotel Martini", "link": "https://www.tripadvisor.com/Hotel_Review-g187871-d233894-Reviews-Hotel_Martini-Verona_Province_of_Verona_Veneto.html", "reviews": 909, "rating": 4, "price_range_usd": {"min": 73, "max": 92}, "phone": "+39 045 569400", "address": "Via Giulio Camuzzoni 2, 37138, Verona Italy", "detailed_address": {"street": "Via Giulio Camuzzoni 2", "city": null, "postal_code": "37138", "state": null, "country": "Italy"}, "ranking": {"current_rank": 27, "total": 87}, "featured_image": null, "latitude": 45.43271, "longitude": 10.978859, "amenities": ["Free Wifi", "Breakfast included", "Room service", "Pets Allowed", "Bar/Lounge"], "providers": ["Booking.com"]}, {"id": 237445, "name": "Hotel Scalzi", "link": "https://www.tripadvisor.com/Hotel_Review-g187871-d237445-Reviews-Hotel_Scalzi-Verona_Province_of_Verona_Veneto.html", "reviews": 785, "rating": 4.5, "price_range_usd": {"min": 91, "max": 146}, "phone": "+39 045 590422", "address": "Via Carmelitani Scalzi 5, 37122, Verona Italy", "detailed_address": {"street": "Via Carmelitani Scalzi 5", "city": null, "postal_code": "37122", "state": null, "country": "Italy"}, "ranking": {"current_rank": 22, "total": 87}, "featured_image": null, "latitude": 45.435356, "longitude": 10.984458, "amenities": ["Free Wifi", "Pets Allowed"], "providers": ["Booking.com"]}, {"id": 1018034, "name": "Hotel Arena", "link": "https://www.tripadvisor.com/Hotel_Review-g187871-d1018034-Reviews-Hotel_Arena-Verona_Province_of_Verona_Veneto.html", "reviews": 276, "rating": 3.5, "price_range_usd": {"min": 61, "max": 90}, "phone": "39 45/8032440", "address": "Stradone Porta Palio 2, 37122, Verona Italy", "detailed_address": {"street": "Stradone Porta Palio 2", "city": null, "postal_code": "37122", "state": null, "country": "Italy"}, "ranking": {"current_rank": 63, "total": 87}, "featured_image": null, "latitude": 45.43897, "longitude": 10.986375, "amenities": ["Free Wifi", "Room service"], "providers": ["Booking.com"]}, {"id": 237440, "name": "Hotel Mastino", "link": "https://www.tripadvisor.com/Hotel_Review-g187871-d237440-Reviews-Hotel_Mastino-Verona_Province_of_Verona_Veneto.html", "reviews": 1560, "rating": 3.5, "price_range_usd": {"min": 94, "max": 139}, "phone": "+39 045 595388", "address": "Corso Porta Nuova 16, 37122, Verona Italy", "detailed_address": {"street": "Corso Porta Nuova 16", "city": null, "postal_code": "37122", "state": null, "country": "Italy"}, "ranking": {"current_rank": 54, "total": 87}, "featured_image": null, "latitude": 45.437073, "longitude": 10.990956, "amenities": ["Free Wifi", "Breakfast included", "Pets Allowed"], "providers": ["Vio.com"]}]}, "error": null}