{"data": {"link": "https://www.tripadvisor.com/Hotels-g187871-oa60-Verona_Province_of_Verona_Veneto-Hotels.html", "total_pages": 38, "current_page": 3, "total_items_count": 1111, "items_count": 30, "results": [{"id": 238857, "name": "Hotel Europa", "link": "https://www.tripadvisor.com/Hotel_Review-g187871-d238857-Reviews-Hotel_Europa-Verona_Province_of_Verona_Veneto.html", "reviews": 506, "rating": 3.5, "price_range_usd": {"min": 129, "max": 181}, "phone": "+39 045 594744", "address": "Via Roma 8, 37121, Verona Italy", "detailed_address": {"street": "Via Roma 8", "city": null, "postal_code": "37121", "state": null, "country": "Italy"}, "ranking": {"current_rank": 49, "total": 87}, "featured_image": null, "latitude": 45.438778, "longitude": 10.99071, "amenities": ["Free Wifi", "Breakfast included"], "providers": []}, {"id": 233901, "name": "Hotel San Marco", "link": "https://www.tripadvisor.com/Hotel_Review-g187871-d233901-Reviews-Hotel_San_Marco-Verona_Province_of_Verona_Veneto.html", "reviews": 1006, "rating": 4, "price_range_usd": {"min": 86, "max": 170}, "phone": "+39 394 556 9011", "address": "Via Baldassare Longhena 42, 37138, Verona Italy", "detailed_address": {"street": "Via Baldassare Longhena 42", "city": null, "postal_code": "37138", "state": null, "country": "Italy"}, "ranking": {"current_rank": 47, "total": 87}, "featured_image": null, "latitude": 45.440014, "longitude": 10.972021, "amenities": ["Free Wifi", "Breakfast included", "Pool", "Heated pool", "Indoor pool"], "providers": []}, {"id": 237443, "name": "Best Western Hotel Armando", "link": "https://www.tripadvisor.com/Hotel_Review-g187871-d237443-Reviews-Best_Western_Hotel_Armando-Verona_Province_of_Verona_Veneto.html", "reviews": 734, "rating": 4.5, "price_range_usd": {"min": 114, "max": 161}, "phone": "+39 045 800 0206", "address": "Via Dietro Pallone 1, 37121, Verona Italy", "detailed_address": {"street": "Via Dietro Pallone 1", "city": null, "postal_code": "37121", "state": null, "country": "Italy"}, "ranking": {"current_rank": 23, "total": 87}, "featured_image": null, "latitude": 45.43629, "longitude": 10.998084, "amenities": ["Free Wifi", "Airport transportation"], "providers": []}, {"id": 3783011, "name": "Agriturismo Bacche di Bosco", "link": "https://www.tripadvisor.com/Hotel_Review-g187871-d3783011-Reviews-Agriturismo_Bacche_di_Bosco-Verona_Province_of_Verona_Veneto.html", "reviews": 147, "rating": 4.5, "price_range_usd": {"min": 113, "max": 123}, "phone": "+39 340 371 0787", "address": "Stradella Bionde 15/A, 37139, Verona Italy", "detailed_address": {"street": "Stradella Bionde 15/A", "city": null, "postal_code": "37139", "state": null, "country": "Italy"}, "ranking": {"current_rank": 26, "total": 344}, "featured_image": null, "latitude": 45.450634, "longitude": 10.938882, "amenities": ["Free Wifi", "Free parking", "Breakfast included", "Pets Allowed"], "providers": []}, {"id": 7093163, "name": "Relais A Ponte Pietra", "link": "https://www.tripadvisor.com/Hotel_Review-g187871-d7093163-Reviews-Relais_A_Ponte_Pietra-Verona_Province_of_Verona_Veneto.html", "reviews": 173, "rating": 5, "price_range_usd": {"min": 113, "max": 188}, "phone": "+39 337 149 4814", "address": "Via Ponte Pietra 27, 37121, Verona Italy", "detailed_address": {"street": "Via Ponte Pietra 27", "city": null, "postal_code": "37121", "state": null, "country": "Italy"}, "ranking": {"current_rank": 8, "total": 466}, "featured_image": null, "latitude": 45.44737, "longitude": 10.99937, "amenities": ["Free Wifi", "Breakfast included"], "providers": []}, {"id": 13958271, "name": "Lords of Verona", "link": "https://www.tripadvisor.com/Hotel_Review-g187871-d13958271-Reviews-Lords_of_Verona-Verona_Province_of_Verona_Veneto.html", "reviews": 75, "rating": 5, "price_range_usd": {"min": 187, "max": 337}, "phone": "+39 045 803 6784", "address": "Piazza Dei Signori 4, 37121, Verona Italy", "detailed_address": {"street": "Piazza Dei Signori 4", "city": null, "postal_code": "37121", "state": null, "country": "Italy"}, "ranking": {"current_rank": 18, "total": 344}, "featured_image": null, "latitude": 45.44343, "longitude": 10.997669, "amenities": ["Free Wifi", "Pets Allowed"], "providers": []}, {"id": 13355592, "name": "Ark Hotel", "link": "https://www.tripadvisor.com/Hotel_Review-g187871-d13355592-Reviews-Ark_Hotel-Verona_Province_of_Verona_Veneto.html", "reviews": 300, "rating": 4, "price_range_usd": {"min": 118, "max": 162}, "phone": null, "address": "Via Dal Cero 1, 37138, Verona Italy", "detailed_address": {"street": "Via Dal Cero 1", "city": null, "postal_code": "37138", "state": null, "country": "Italy"}, "ranking": {"current_rank": 32, "total": 87}, "featured_image": null, "latitude": 45.433094, "longitude": 10.979539, "amenities": ["Free Wifi", "Breakfast included", "Bar/Lounge"], "providers": []}, {"id": 202674, "name": "Hotel Colomba d'Oro", "link": "https://www.tripadvisor.com/Hotel_Review-g187871-d202674-Reviews-Hotel_Colomba_d_Oro-Verona_Province_of_Verona_Veneto.html", "reviews": 687, "rating": 4, "price_range_usd": {"min": 129, "max": 238}, "phone": "+39 045 595300", "address": "Via Carlo Cattaneo 10, 37121, Verona Italy", "detailed_address": {"street": "Via Carlo Cattaneo 10", "city": null, "postal_code": "37121", "state": null, "country": "Italy"}, "ranking": {"current_rank": 20, "total": 87}, "featured_image": null, "latitude": 45.439713, "longitude": 10.991901, "amenities": ["Free Wifi", "Room service", "Bar/Lounge"], "providers": []}, {"id": 237434, "name": "Hotel Siena", "link": "https://www.tripadvisor.com/Hotel_Review-g187871-d237434-Reviews-Hotel_Siena-Verona_Province_of_Verona_Veneto.html", "reviews": 647, "rating": 4, "price_range_usd": {"min": 76, "max": 125}, "phone": "+39 045 800 3074", "address": "Via Guglielmo Marconi 41, 37122, Verona Italy", "detailed_address": {"street": "Via Guglielmo Marconi 41", "city": null, "postal_code": "37122", "state": null, "country": "Italy"}, "ranking": {"current_rank": 39, "total": 87}, "featured_image": null, "latitude": 45.435257, "longitude": 10.985282, "amenities": ["Free Wifi"], "providers": []}, {"id": 10070070, "name": "Relais Colle San Pietro", "link": "https://www.tripadvisor.com/Hotel_Review-g187871-d10070070-Reviews-Relais_Colle_San_Pietro-Verona_Province_of_Verona_Veneto.html", "reviews": 85, "rating": 5, "price_range_usd": {"min": 238, "max": 356}, "phone": "04708450236", "address": "Vicolo Cieco Zini 4, 37129, Verona Italy", "detailed_address": {"street": "Vicolo Cieco Zini 4", "city": null, "postal_code": "37129", "state": null, "country": "Italy"}, "ranking": {"current_rank": 36, "total": 466}, "featured_image": null, "latitude": 45.448883, "longitude": 11.000697, "amenities": ["Free Wifi", "Breakfast included", "Room service", "Pets Allowed"], "providers": []}, {"id": 6895271, "name": "Verona Design B&B", "link": "https://www.tripadvisor.com/Hotel_Review-g187871-d6895271-Reviews-Verona_Design_B_B-Verona_Province_of_Verona_Veneto.html", "reviews": 73, "rating": 4.5, "price_range_usd": {"min": 83, "max": 147}, "phone": "+39 045 800 0206", "address": "Via Macello 8a, 37121, Verona Italy", "detailed_address": {"street": "Via Macello 8a", "city": null, "postal_code": "37121", "state": null, "country": "Italy"}, "ranking": {"current_rank": 174, "total": 466}, "featured_image": null, "latitude": 45.435833, "longitude": 10.999228, "amenities": ["Free Wifi", "Free parking", "Breakfast included"], "providers": []}, {"id": 573499, "name": "Ca' dell'Orto", "link": "https://www.tripadvisor.com/Hotel_Review-g187871-d573499-Reviews-Ca_dell_Orto-Verona_Province_of_Verona_Veneto.html", "reviews": 284, "rating": 5, "price_range_usd": {"min": 187, "max": 212}, "phone": "39 45 8303554", "address": "via Francesco da Levanto, 52, 37138, Verona Italy", "detailed_address": {"street": "via Francesco da Levanto, 52", "city": null, "postal_code": "37138", "state": null, "country": "Italy"}, "ranking": {"current_rank": 12, "total": 344}, "featured_image": null, "latitude": 45.4555, "longitude": 10.973092, "amenities": ["Free Wifi", "Free parking", "Pool", "Outdoor pool", "Pets Allowed"], "providers": []}, {"id": 1836011, "name": "Residence all'Adige", "link": "https://www.tripadvisor.com/Hotel_Review-g187871-d1836011-Reviews-Residence_all_Adige-Verona_Province_of_Verona_Veneto.html", "reviews": 284, "rating": 4.5, "price_range_usd": {"min": 102, "max": 119}, "phone": "+39 045 834 0138", "address": "Via Ferdinando Magellano 28, 37138, Verona Italy", "detailed_address": {"street": "Via Ferdinando Magellano 28", "city": null, "postal_code": "37138", "state": null, "country": "Italy"}, "ranking": {"current_rank": 13, "total": 344}, "featured_image": null, "latitude": 45.453934, "longitude": 10.97561, "amenities": ["Free Wifi", "Free parking", "Bar/Lounge"], "providers": []}, {"id": 1515190, "name": "Massimago Winery and Country Relais", "link": "https://www.tripadvisor.com/Hotel_Review-g187871-d1515190-Reviews-Massimago_Winery_and_Country_Relais-Verona_Province_of_Verona_Veneto.html", "reviews": 137, "rating": 4.5, "price_range_usd": {"min": 108, "max": 217}, "phone": "+39 342 660 4566", "address": "Via Giare 21 Mezzane di sotto, 37030, Verona Italy", "detailed_address": {"street": "Via Giare 21, Mezzane di sotto", "city": null, "postal_code": "37030", "state": null, "country": "Italy"}, "ranking": {"current_rank": 71, "total": 466}, "featured_image": null, "latitude": 45.476055, "longitude": 11.145898, "amenities": ["Free Wifi", "Free parking", "Breakfast included", "Pool", "Outdoor pool"], "providers": []}, {"id": 656324, "name": "Magnolia B&B", "link": "https://www.tripadvisor.com/Hotel_Review-g187871-d656324-Reviews-Magnolia_B_B-Verona_Province_of_Verona_Veneto.html", "reviews": 341, "rating": 3.5, "price_range_usd": {"min": 57, "max": 88}, "phone": "+39 392 330 6284", "address": "Via Jacopo Foroni 8, 37122, Verona Italy", "detailed_address": {"street": "Via Jacopo Foroni 8", "city": null, "postal_code": "37122", "state": null, "country": "Italy"}, "ranking": {"current_rank": 160, "total": 466}, "featured_image": null, "latitude": 45.42959, "longitude": 10.989861, "amenities": ["Free Wifi", "Breakfast included"], "providers": []}, {"id": 1606212, "name": "Cittadella", "link": "https://www.tripadvisor.com/Hotel_Review-g187871-d1606212-Reviews-Cittadella-Verona_Province_of_Verona_Veneto.html", "reviews": 204, "rating": 4, "price_range_usd": {"min": 70, "max": 108}, "phone": "+39 045 485 9217", "address": "Vicolo Volto Cittadella, 16, 37122, Verona Italy", "detailed_address": {"street": "Vicolo Volto Cittadella, 16", "city": null, "postal_code": "37122", "state": null, "country": "Italy"}, "ranking": {"current_rank": 83, "total": 466}, "featured_image": null, "latitude": 45.436085, "longitude": 10.991929, "amenities": ["Free Wifi", "Breakfast included", "Pets Allowed"], "providers": []}, {"id": 1825914, "name": "Casa Esvael", "link": "https://www.tripadvisor.com/Hotel_Review-g187871-d1825914-Reviews-Casa_Esvael-Verona_Province_of_Verona_Veneto.html", "reviews": 77, "rating": 4, "price_range_usd": {"min": 91, "max": 117}, "phone": "+39 345 257 0506", "address": "Corso Cavour 16, 37121, Verona Italy", "detailed_address": {"street": "Corso Cavour 16", "city": null, "postal_code": "37121", "state": null, "country": "Italy"}, "ranking": {"current_rank": 204, "total": 466}, "featured_image": null, "latitude": 45.44128, "longitude": 10.991966, "amenities": ["Free Wifi", "Breakfast included"], "providers": []}, {"id": 237432, "name": "Brandoli", "link": "https://www.tripadvisor.com/Hotel_Review-g187871-d237432-Reviews-Brandoli-Verona_Province_of_Verona_Veneto.html", "reviews": 308, "rating": 4, "price_range_usd": {"min": 70, "max": 90}, "phone": "+39 045 884 0155", "address": "Via Antonio da Legnago 11, 37141, Verona Italy", "detailed_address": {"street": "Via Antonio da Legnago 11", "city": null, "postal_code": "37141", "state": null, "country": "Italy"}, "ranking": {"current_rank": 46, "total": 87}, "featured_image": null, "latitude": 45.450928, "longitude": 11.048396, "amenities": ["Free Wifi", "Free parking", "Bar/Lounge"], "providers": []}, {"id": 202572, "name": "Hotel Porta Palio", "link": "https://www.tripadvisor.com/Hotel_Review-g187871-d202572-Reviews-Hotel_Porta_Palio-Verona_Province_of_Verona_Veneto.html", "reviews": 869, "rating": 4, "price_range_usd": {"min": 70, "max": 106}, "phone": "+39 045 569400", "address": "Viale Colonnello Galliano 21 37138 Verona, 37138, Verona Italy", "detailed_address": {"street": "Viale Colonnello Galliano 21, 37138 Verona", "city": null, "postal_code": "37138", "state": null, "country": "Italy"}, "ranking": {"current_rank": 42, "total": 87}, "featured_image": null, "latitude": 45.439423, "longitude": 10.974571, "amenities": ["Free Wifi", "Free parking", "Restaurant", "Room service", "Pets Allowed"], "providers": []}, {"id": 571172, "name": "Hotel Residence Antico San Zeno", "link": "https://www.tripadvisor.com/Hotel_Review-g187871-d571172-Reviews-Hotel_Residence_Antico_San_Zeno-Verona_Province_of_Verona_Veneto.html", "reviews": 341, "rating": 4, "price_range_usd": {"min": 93, "max": 145}, "phone": "+39 329 416 7285", "address": "Via Antonio Rosmini 15, 37123, Verona Italy", "detailed_address": {"street": "Via Antonio Rosmini 15", "city": null, "postal_code": "37123", "state": null, "country": "Italy"}, "ranking": {"current_rank": 41, "total": 87}, "featured_image": null, "latitude": 45.440796, "longitude": 10.980989, "amenities": ["Free Wifi", "Breakfast included"], "providers": []}, {"id": 1145679, "name": "Tenuta Delo Relais", "link": "https://www.tripadvisor.com/Hotel_Review-g3663064-d1145679-Reviews-Tenuta_Delo_Relais-Mizzole_Verona_Province_of_Verona_Veneto.html", "reviews": 353, "rating": 5, "price_range_usd": {"min": 129, "max": 151}, "phone": "+39 045 485 8380", "address": "Via del Torresin, 37141 Mizzole, Verona Italy", "detailed_address": {"street": "Via del Torresin", "city": "Mizzole", "postal_code": "37141", "state": null, "country": "Italy"}, "ranking": {"current_rank": 4, "total": 466}, "featured_image": null, "latitude": 45.4809, "longitude": 11.0557, "amenities": ["Free Wifi", "Free parking", "Breakfast included", "Pets Allowed"], "providers": []}, {"id": 6686694, "name": "Verona Maison", "link": "https://www.tripadvisor.com/Hotel_Review-g187871-d6686694-Reviews-Verona_Maison-Verona_Province_of_Verona_Veneto.html", "reviews": 104, "rating": 3.5, "price_range_usd": {"min": 74, "max": 107}, "phone": "+39 349 757 6024", "address": "Circonvallazione Alfredo Oriani 10, 37122, Verona Italy", "detailed_address": {"street": "Circonvallazione Alfredo Oriani 10", "city": null, "postal_code": "37122", "state": null, "country": "Italy"}, "ranking": {"current_rank": 149, "total": 344}, "featured_image": null, "latitude": 45.433098, "longitude": 10.983771, "amenities": ["Free Wifi", "Breakfast included", "Airport transportation"], "providers": []}, {"id": 4547147, "name": "Truly Verona", "link": "https://www.tripadvisor.com/Hotel_Review-g187871-d4547147-Reviews-Truly_Verona-Verona_Province_of_Verona_Veneto.html", "reviews": 246, "rating": 4.5, "price_range_usd": {"min": 68, "max": 150}, "phone": "+39 045 245 6031", "address": "Via San Pietro Incarnario, 8A, 37121, Verona Italy", "detailed_address": {"street": "Via San Pietro Incarnario, 8A", "city": null, "postal_code": "37121", "state": null, "country": "Italy"}, "ranking": {"current_rank": 22, "total": 344}, "featured_image": null, "latitude": 45.43735, "longitude": 10.99698, "amenities": ["Free Wifi"], "providers": []}, {"id": 237441, "name": "Palazzo Ciopeta", "link": "https://www.tripadvisor.com/Hotel_Review-g187871-d237441-Reviews-Palazzo_Ciopeta-Verona_Province_of_Verona_Veneto.html", "reviews": 11, "rating": 5, "price_range_usd": {"min": 274, "max": 333}, "phone": "+39 045 923 1965", "address": "Via Teatro Filarmonico, 4, 37121, Verona Italy", "detailed_address": {"street": "Via Teatro Filarmonico, 4", "city": null, "postal_code": "37121", "state": null, "country": "Italy"}, "ranking": {"current_rank": 58, "total": 87}, "featured_image": null, "latitude": 45.43871, "longitude": 10.99098, "amenities": ["Free Wifi", "Airport transportation"], "providers": []}, {"id": 237425, "name": "La Grotta Hotel", "link": "https://www.tripadvisor.com/Hotel_Review-g187871-d237425-Reviews-La_Grotta_Hotel-Verona_Province_of_Verona_Veneto.html", "reviews": 475, "rating": 4.5, "price_range_usd": {"min": 76, "max": 115}, "phone": "+39 045 890 5702", "address": "Strada Bresciana 16, 37139, Verona Italy", "detailed_address": {"street": "Strada Bresciana 16", "city": null, "postal_code": "37139", "state": null, "country": "Italy"}, "ranking": {"current_rank": 13, "total": 87}, "featured_image": null, "latitude": 45.44686, "longitude": 10.936501, "amenities": ["Free Wifi", "Free parking", "Breakfast included", "Room service", "Bar/Lounge"], "providers": []}, {"id": 1966831, "name": "Gallery Room", "link": "https://www.tripadvisor.com/Hotel_Review-g187871-d1966831-Reviews-Gallery_Room-Verona_Province_of_Verona_Veneto.html", "reviews": 155, "rating": 4, "price_range_usd": {"min": 104, "max": 167}, "phone": "+39 045 595542", "address": "Via di Sant'Antonio 6, 37122, Verona Italy", "detailed_address": {"street": "Via di Sant'Antonio 6", "city": null, "postal_code": "37122", "state": null, "country": "Italy"}, "ranking": {"current_rank": 131, "total": 466}, "featured_image": null, "latitude": 45.436974, "longitude": 10.989078, "amenities": ["Free Wifi", "Room service", "Bar/Lounge", "Spa"], "providers": []}, {"id": 4022249, "name": "Bed & Breakfast Le Fate Dei Prati", "link": "https://www.tripadvisor.com/Hotel_Review-g187871-d4022249-Reviews-Bed_Breakfast_Le_Fate_Dei_Prati-Verona_Province_of_Verona_Veneto.html", "reviews": 46, "rating": 5, "price_range_usd": {"min": 91, "max": 96}, "phone": "+39 340 716 5810", "address": "Via Chioda 182 , Verona Italy", "detailed_address": {"street": "Via Chioda 182 ", "city": null, "postal_code": null, "state": null, "country": "Italy"}, "ranking": {"current_rank": 99, "total": 466}, "featured_image": null, "latitude": 45.398815, "longitude": 10.930999, "amenities": ["Free parking", "Pool", "Pets Allowed"], "providers": []}, {"id": 13991171, "name": "The Hostello", "link": "https://www.tripadvisor.com/Hotel_Review-g187871-d13991171-Reviews-The_Hostello-Verona_Province_of_Verona_Veneto.html", "reviews": 60, "rating": 5, "price_range_usd": {"min": 45, "max": 48}, "phone": "+39 045 221 8647", "address": "Via Venti Settembre 80, 37129, Verona Italy", "detailed_address": {"street": "Via Venti Settembre 80", "city": null, "postal_code": "37129", "state": null, "country": "Italy"}, "ranking": {"current_rank": 30, "total": 344}, "featured_image": null, "latitude": 45.439716, "longitude": 11.01066, "amenities": ["Free Wifi", "Breakfast included"], "providers": []}, {"id": 237448, "name": "Albergo Al Castello", "link": "https://www.tripadvisor.com/Hotel_Review-g187871-d237448-Reviews-Albergo_Al_Castello-Verona_Province_of_Verona_Veneto.html", "reviews": 108, "rating": 4, "price_range_usd": {"min": 89, "max": 132}, "phone": "+39 045 801 5588", "address": "Vico Brusco, 4, 37121, Verona Italy", "detailed_address": {"street": "Vico Brusco, 4", "city": null, "postal_code": "37121", "state": null, "country": "Italy"}, "ranking": {"current_rank": 57, "total": 87}, "featured_image": null, "latitude": 45.439716, "longitude": 10.989616, "amenities": ["Free Wifi", "Breakfast included", "Room service", "Pets Allowed"], "providers": []}, {"id": 10439218, "name": "Air Suite", "link": "https://www.tripadvisor.com/Hotel_Review-g187871-d10439218-Reviews-Air_Suite-Verona_Province_of_Verona_Veneto.html", "reviews": 94, "rating": 4, "price_range_usd": {"min": 111, "max": 135}, "phone": "+39 045 493 7711", "address": "Corso Porta Nuova 11, 37122, Verona Italy", "detailed_address": {"street": "Corso Porta Nuova 11", "city": null, "postal_code": "37122", "state": null, "country": "Italy"}, "ranking": {"current_rank": 182, "total": 466}, "featured_image": null, "latitude": 45.43673, "longitude": 10.99141, "amenities": ["Free Wifi", "Breakfast included", "Airport transportation", "Bar/Lounge", "Spa"], "providers": []}]}, "error": null}