{"data": {"link": "https://www.tripadvisor.com/Hotels-g187836-oa60-Lecco_Province_of_Lecco_Lombardy-Hotels.html", "total_pages": 3, "current_page": 3, "total_items_count": 83, "items_count": 23, "results": [{"id": 942636, "name": "Hotel Moderno", "link": "https://www.tripadvisor.com/Hotel_Review-g187836-d942636-Reviews-Hotel_Moderno-Lecco_Province_of_Lecco_Lombardy.html", "reviews": 159, "rating": 3, "price_range_usd": {"min": 112, "max": 527}, "phone": "+39 0341 286519", "address": "Piazza Armando Diaz 5, 23900 Lecco Italy", "detailed_address": {"street": "Piazza Armando Diaz 5", "city": "Lecco", "postal_code": "23900", "state": null, "country": "Italy"}, "ranking": {"current_rank": 7, "total": 7}, "featured_image": null, "latitude": 45.8558, "longitude": 9.393062, "amenities": ["Free Wifi", "Breakfast included", "Airport transportation", "Pets Allowed"], "providers": []}, {"id": 17804262, "name": "Appartamento Cavour", "link": "https://www.tripadvisor.com/Hotel_Review-g187836-d17804262-Reviews-Appartamento_Cavour-Lecco_Province_of_Lecco_Lombardy.html", "reviews": 1, "rating": 2, "price_range_usd": {"min": null, "max": null}, "phone": null, "address": "Via Camillo Benso di Cavour 88, 23900 Lecco Italy", "detailed_address": {"street": "Via Camillo Benso di Cavour 88", "city": "Lecco", "postal_code": "23900", "state": null, "country": "Italy"}, "ranking": {"current_rank": 21, "total": 25}, "featured_image": null, "latitude": 45.85508, "longitude": 9.39233, "amenities": [], "providers": []}, {"id": 27110662, "name": "B&B Del Bosco E Del Lago Elimar", "link": "https://www.tripadvisor.com/Hotel_Review-g187836-d27110662-Reviews-B_B_Del_Bosco_E_Del_Lago_Elimar-Lecco_Province_of_Lecco_Lombardy.html", "reviews": 1, "rating": 2, "price_range_usd": {"min": 75, "max": 76}, "phone": "+39 347 504 8813", "address": "Corso Promessi Sposi 20, 23900 Lecco Italy", "detailed_address": {"street": "Corso Promessi Sposi 20", "city": "Lecco", "postal_code": "23900", "state": null, "country": "Italy"}, "ranking": {"current_rank": 22, "total": 22}, "featured_image": null, "latitude": 45.85352, "longitude": 9.40156, "amenities": [], "providers": []}, {"id": 15573015, "name": "Appartamento Gradisca", "link": "https://www.tripadvisor.com/Hotel_Review-g187836-d15573015-Reviews-Appartamento_Gradisca-Lecco_Province_of_Lecco_Lombardy.html", "reviews": 1, "rating": 1, "price_range_usd": {"min": 145, "max": 152}, "phone": null, "address": "Via Gradisca, 23900 Lecco Italy", "detailed_address": {"street": "Via Gradisca", "city": "Lecco", "postal_code": "23900", "state": null, "country": "Italy"}, "ranking": {"current_rank": 22, "total": 25}, "featured_image": null, "latitude": 45.85517, "longitude": 9.41167, "amenities": [], "providers": []}, {"id": 6578103, "name": "Be Happy", "link": "https://www.tripadvisor.com/Hotel_Review-g187836-d6578103-Reviews-Be_Happy-Lecco_Province_of_Lecco_Lombardy.html", "reviews": 3, "rating": 1.5, "price_range_usd": {"min": null, "max": null}, "phone": "+39 0341 493657", "address": "Corso Promessi Sposi 21A, 23900 Lecco Italy", "detailed_address": {"street": "Corso Promessi Sposi 21A", "city": "Lecco", "postal_code": "23900", "state": null, "country": "Italy"}, "ranking": {"current_rank": 23, "total": 25}, "featured_image": null, "latitude": 45.85604, "longitude": 9.40503, "amenities": ["Free Wifi", "Free parking", "Restaurant", "Pets Allowed", "Bar/Lounge"], "providers": []}, {"id": 23187917, "name": "Lecco Center Rooms", "link": "https://www.tripadvisor.com/Hotel_Review-g187836-d23187917-Reviews-Lecco_Center_Rooms-Lecco_Province_of_Lecco_Lombardy.html", "reviews": 1, "rating": 1, "price_range_usd": {"min": null, "max": null}, "phone": null, "address": "Via Arlenico 28, 23900 Lecco Italy", "detailed_address": {"street": "Via Arlenico 28", "city": "Lecco", "postal_code": "23900", "state": null, "country": "Italy"}, "ranking": {"current_rank": 24, "total": 25}, "featured_image": null, "latitude": 45.85015, "longitude": 9.39926, "amenities": [], "providers": []}, {"id": 7274353, "name": "My Room Center Station", "link": "https://www.tripadvisor.com/Hotel_Review-g187836-d7274353-Reviews-My_Room_Center_Station-Lecco_Province_of_Lecco_Lombardy.html", "reviews": 13, "rating": 2, "price_range_usd": {"min": null, "max": null}, "phone": null, "address": "Via Camillo Benso di Cavour 88, 23900 Lecco Italy", "detailed_address": {"street": "Via Camillo Benso di Cavour 88", "city": "Lecco", "postal_code": "23900", "state": null, "country": "Italy"}, "ranking": {"current_rank": 25, "total": 25}, "featured_image": null, "latitude": 45.85508, "longitude": 9.39233, "amenities": ["Free Wifi", "Pets Allowed"], "providers": []}, {"id": 28109338, "name": "La Casa Sul Lago Lecco", "link": "https://www.tripadvisor.com/Hotel_Review-g187836-d28109338-Reviews-La_Casa_Sul_Lago_Lecco-Lecco_Province_of_Lecco_Lombardy.html", "reviews": 0, "rating": 0, "price_range_usd": {"min": 106, "max": 261}, "phone": "+39 0341 353680", "address": "Piazza XX Settembre, 15, 23900 Lecco Italy", "detailed_address": {"street": "Piazza XX Settembre, 15", "city": "Lecco", "postal_code": "23900", "state": null, "country": "Italy"}, "ranking": null, "featured_image": null, "latitude": 45.855537, "longitude": 9.389643, "amenities": [], "providers": []}, {"id": 25412818, "name": "La Casa nel Parco Lecco", "link": "https://www.tripadvisor.com/Hotel_Review-g187836-d25412818-Reviews-La_Casa_nel_Parco_Lecco-Lecco_Province_of_Lecco_Lombardy.html", "reviews": 0, "rating": 0, "price_range_usd": {"min": 156, "max": 159}, "phone": "+39 0341 353680", "address": "17 Corso Giacomo Matteotti, 23900 Lecco Italy", "detailed_address": {"street": "17 Corso Giacomo Matteotti", "city": "Lecco", "postal_code": "23900", "state": null, "country": "Italy"}, "ranking": null, "featured_image": null, "latitude": 45.8587, "longitude": 9.39586, "amenities": [], "providers": []}, {"id": 25233751, "name": "La Pineta - Le Casette di Osvaldo", "link": "https://www.tripadvisor.com/Hotel_Review-g187836-d25233751-Reviews-La_Pineta_Le_Casette_di_Osvaldo-Lecco_Province_of_Lecco_Lombardy.html", "reviews": 0, "rating": 0, "price_range_usd": {"min": 71, "max": 106}, "phone": null, "address": "Via Valsassina 32, 23900 Lecco Italy", "detailed_address": {"street": "Via Valsassina 32", "city": "Lecco", "postal_code": "23900", "state": null, "country": "Italy"}, "ranking": null, "featured_image": null, "latitude": 45.885796, "longitude": 9.413123, "amenities": [], "providers": []}, {"id": 25414529, "name": "Sweet Homes", "link": "https://www.tripadvisor.com/Hotel_Review-g187836-d25414529-Reviews-Sweet_Homes-Lecco_Province_of_Lecco_Lombardy.html", "reviews": 0, "rating": 0, "price_range_usd": {"min": 122, "max": 167}, "phone": null, "address": "Via Gaetano Previati, 23900 Lecco Italy", "detailed_address": {"street": "Via Gaetano Previati", "city": "Lecco", "postal_code": "23900", "state": null, "country": "Italy"}, "ranking": null, "featured_image": null, "latitude": 45.84898, "longitude": 9.3961, "amenities": [], "providers": []}, {"id": 23830198, "name": "B&B Fiesta", "link": "https://www.tripadvisor.com/Hotel_Review-g187836-d23830198-Reviews-B_B_Fiesta-Lecco_Province_of_Lecco_Lombardy.html", "reviews": 0, "rating": 0, "price_range_usd": {"min": null, "max": null}, "phone": null, "address": "Via Piave 43/4, 23848 Lecco Italy", "detailed_address": {"street": "Via Piave 43/4", "city": "Lecco", "postal_code": "23848", "state": null, "country": "Italy"}, "ranking": null, "featured_image": null, "latitude": 45.79589, "longitude": 9.36239, "amenities": [], "providers": []}, {"id": 21182338, "name": "H Apartments", "link": "https://www.tripadvisor.com/Hotel_Review-g187836-d21182338-Reviews-H_Apartments-Lecco_Province_of_Lecco_Lombardy.html", "reviews": 0, "rating": 0, "price_range_usd": {"min": null, "max": null}, "phone": null, "address": "Piazza XX Settembre 27, 23900 Lecco Italy", "detailed_address": {"street": "Piazza XX Settembre 27", "city": "Lecco", "postal_code": "23900", "state": null, "country": "Italy"}, "ranking": null, "featured_image": null, "latitude": 45.855835, "longitude": 9.38903, "amenities": [], "providers": []}, {"id": 23181436, "name": "Casa Vacanze Manzoni", "link": "https://www.tripadvisor.com/Hotel_Review-g187836-d23181436-Reviews-Casa_Vacanze_Manzoni-Lecco_Province_of_Lecco_Lombardy.html", "reviews": 0, "rating": 0, "price_range_usd": {"min": null, "max": null}, "phone": null, "address": "Via Cesura 15, 23900 Lecco Italy", "detailed_address": {"street": "Via Cesura 15", "city": "Lecco", "postal_code": "23900", "state": null, "country": "Italy"}, "ranking": null, "featured_image": null, "latitude": 45.85617, "longitude": 9.41399, "amenities": [], "providers": []}, {"id": 7035630, "name": "Villa Amanda", "link": "https://www.tripadvisor.com/Hotel_Review-g187836-d7035630-Reviews-Villa_Amanda-Lecco_Province_of_Lecco_Lombardy.html", "reviews": 0, "rating": 0, "price_range_usd": {"min": null, "max": null}, "phone": "+39 342 711 3829", "address": "Via Stelvio 49, 23900 Lecco Italy", "detailed_address": {"street": "Via Stelvio 49", "city": "Lecco", "postal_code": "23900", "state": null, "country": "Italy"}, "ranking": null, "featured_image": null, "latitude": 45.86801, "longitude": 9.37999, "amenities": [], "providers": []}, {"id": 15565186, "name": "Appartamento Risorgimento", "link": "https://www.tripadvisor.com/Hotel_Review-g187836-d15565186-Reviews-Appartamento_Risorgimento-Lecco_Province_of_Lecco_Lombardy.html", "reviews": 0, "rating": 0, "price_range_usd": {"min": 90, "max": 98}, "phone": null, "address": "Via Risorgimento 27, 23900 Lecco Italy", "detailed_address": {"street": "Via Risorgimento 27", "city": "Lecco", "postal_code": "23900", "state": null, "country": "Italy"}, "ranking": null, "featured_image": null, "latitude": 45.85051, "longitude": 9.40878, "amenities": [], "providers": []}, {"id": 12819835, "name": "Lecco Ancient House", "link": "https://www.tripadvisor.com/Hotel_Review-g187836-d12819835-Reviews-Lecco_Ancient_House-Lecco_Province_of_Lecco_Lombardy.html", "reviews": 0, "rating": 0, "price_range_usd": {"min": null, "max": null}, "phone": null, "address": "Via Roma 45, 23900 Lecco Italy", "detailed_address": {"street": "Via Roma 45", "city": "Lecco", "postal_code": "23900", "state": null, "country": "Italy"}, "ranking": null, "featured_image": null, "latitude": 45.85346, "longitude": 9.39053, "amenities": [], "providers": []}, {"id": 23038939, "name": "Cavour 3", "link": "https://www.tripadvisor.com/Hotel_Review-g187836-d23038939-Reviews-Cavour_3-Lecco_Province_of_Lecco_Lombardy.html", "reviews": 0, "rating": 0, "price_range_usd": {"min": null, "max": null}, "phone": null, "address": "Via Camillo Benso di Cavour 88, 23900 Lecco Italy", "detailed_address": {"street": "Via Camillo Benso di Cavour 88", "city": "Lecco", "postal_code": "23900", "state": null, "country": "Italy"}, "ranking": null, "featured_image": null, "latitude": 45.85511, "longitude": 9.3923, "amenities": [], "providers": []}, {"id": 21246218, "name": "Twin Apartments", "link": "https://www.tripadvisor.com/Hotel_Review-g187836-d21246218-Reviews-Twin_Apartments-Lecco_Province_of_Lecco_Lombardy.html", "reviews": 0, "rating": 0, "price_range_usd": {"min": null, "max": null}, "phone": null, "address": "Via Roma 41, 23900 Lecco Italy", "detailed_address": {"street": "Via Roma 41", "city": "Lecco", "postal_code": "23900", "state": null, "country": "Italy"}, "ranking": null, "featured_image": null, "latitude": 45.85353, "longitude": 9.390552, "amenities": [], "providers": []}, {"id": 23735027, "name": "B&B La Ca' Del Masenzi", "link": "https://www.tripadvisor.com/Hotel_Review-g187836-d23735027-Reviews-B_B_La_Ca_Del_Masenzi-Lecco_Province_of_Lecco_Lombardy.html", "reviews": 0, "rating": 0, "price_range_usd": {"min": null, "max": null}, "phone": null, "address": "Via Maria Tramaglino 7, 23900 Lecco Italy", "detailed_address": {"street": "Via Maria Tramaglino 7", "city": "Lecco", "postal_code": "23900", "state": null, "country": "Italy"}, "ranking": null, "featured_image": null, "latitude": 45.859444, "longitude": 9.409946, "amenities": [], "providers": []}, {"id": 25181658, "name": "Giordano Hotel Lecco", "link": "https://www.tripadvisor.com/Hotel_Review-g187836-d25181658-Reviews-Giordano_Hotel_Lecco-Lecco_Province_of_Lecco_Lombardy.html", "reviews": 0, "rating": 0, "price_range_usd": {"min": null, "max": null}, "phone": null, "address": "Lungolario Luigi Cadorna 20, 23900 Lecco Italy", "detailed_address": {"street": "Lungolario Luigi Cadorna 20", "city": "Lecco", "postal_code": "23900", "state": null, "country": "Italy"}, "ranking": null, "featured_image": null, "latitude": 45.8593, "longitude": 9.384931, "amenities": [], "providers": []}, {"id": 21340829, "name": "Le Casette di Laura", "link": "https://www.tripadvisor.com/Hotel_Review-g187836-d21340829-Reviews-Le_Casette_di_Laura-Lecco_Province_of_Lecco_Lombardy.html", "reviews": 0, "rating": 0, "price_range_usd": {"min": 74, "max": 98}, "phone": null, "address": "Corso Martiri della Liberazione 132, 23900 Lecco Italy", "detailed_address": {"street": "Corso Martiri della Liberazione 132", "city": "Lecco", "postal_code": "23900", "state": null, "country": "Italy"}, "ranking": null, "featured_image": null, "latitude": 45.84688, "longitude": 9.397405, "amenities": [], "providers": []}, {"id": 19812462, "name": "Affittacamere La Scala", "link": "https://www.tripadvisor.com/Hotel_Review-g187836-d19812462-Reviews-Affittacamere_La_Scala-Lecco_Province_of_Lecco_Lombardy.html", "reviews": 0, "rating": 0, "price_range_usd": {"min": 90, "max": 101}, "phone": null, "address": "19 Piazza V Alpini, 23900 Lecco Italy", "detailed_address": {"street": "19 Piazza V Alpini", "city": "Lecco", "postal_code": "23900", "state": null, "country": "Italy"}, "ranking": null, "featured_image": null, "latitude": 45.855328, "longitude": 9.41052, "amenities": [], "providers": []}]}, "error": null}