{"data": {"link": "https://www.tripadvisor.com/Hotels-g187870-Venice_Veneto-Hotels.html", "total_pages": 49, "current_page": 1, "total_items_count": 1467, "items_count": 31, "results": [{"id": 23372191, "name": "Radisson Collection Hotel, Palazzo Nani Venice", "link": "https://www.tripadvisor.com/Hotel_Review-g187870-d23372191-Reviews-Radisson_Collection_Hotel_Palazzo_Nani_Venice-Venice_Veneto.html", "reviews": 201, "rating": 5, "price_range_usd": {"min": 298, "max": 558}, "phone": "+39 041 884 2200", "address": "Fondamenta Cannaregio 1105, 30121 Venice Italy", "detailed_address": {"street": "Fondamenta Cannaregio 1105", "city": "Venice", "postal_code": "30121", "state": null, "country": "Italy"}, "ranking": {"current_rank": 38, "total": 366}, "featured_image": null, "latitude": 45.44453, "longitude": 12.324591, "amenities": ["Free Wifi", "Breakfast included", "Restaurant", "Airport transportation", "Room service"], "providers": ["Radissonhotels.com"]}, {"id": 12579192, "name": "Rosa Salva Hotel", "link": "https://www.tripadvisor.com/Hotel_Review-g187870-d12579192-Reviews-Rosa_Salva_Hotel-Venice_Veneto.html", "reviews": 1347, "rating": 5, "price_range_usd": {"min": 131, "max": 301}, "phone": "+39 041 241 3323", "address": "San Marco 951, 30124 Venice Italy", "detailed_address": {"street": "San Marco 951", "city": "Venice", "postal_code": "30124", "state": null, "country": "Italy"}, "ranking": {"current_rank": 5, "total": 366}, "featured_image": null, "latitude": 45.43525, "longitude": 12.337914, "amenities": ["Free Wifi"], "providers": ["Booking.com"]}, {"id": 613798, "name": "Hilton Molino Stucky Venice", "link": "https://www.tripadvisor.com/Hotel_Review-g187870-d613798-Reviews-Hilton_Molino_Stucky_Venice-Venice_Veneto.html", "reviews": 9190, "rating": 4.5, "price_range_usd": {"min": 178, "max": 314}, "phone": "+39 041 272 3311", "address": "Giudecca 810, 30133 Venice Italy", "detailed_address": {"street": "Giudecca 810", "city": "Venice", "postal_code": "30133", "state": null, "country": "Italy"}, "ranking": {"current_rank": 164, "total": 366}, "featured_image": null, "latitude": 45.428223, "longitude": 12.320298, "amenities": ["Pool", "Outdoor pool", "Restaurant", "Airport transportation", "Room service"], "providers": ["Booking.com"]}, {"id": 229009, "name": "NH Collection Venezia Grand Hotel Palazzo dei Dogi", "link": "https://www.tripadvisor.com/Hotel_Review-g187870-d229009-Reviews-NH_Collection_Venezia_Grand_Hotel_Palazzo_dei_Dogi-Venice_Veneto.html", "reviews": 2144, "rating": 4.5, "price_range_usd": {"min": 227, "max": 373}, "phone": "+39 041 220 8111", "address": "Fondamenta Madona de l'Orto 3500, 30121 Venice Italy", "detailed_address": {"street": "Fondamenta Madona de l'Orto 3500", "city": "Venice", "postal_code": "30121", "state": null, "country": "Italy"}, "ranking": {"current_rank": 113, "total": 366}, "featured_image": null, "latitude": 45.446728, "longitude": 12.331022, "amenities": ["Free Wifi", "Restaurant", "Room service", "Bar/Lounge"], "providers": ["NH Collection"]}, {"id": 555225, "name": "Ai Mori d'Oriente Hotel", "link": "https://www.tripadvisor.com/Hotel_Review-g187870-d555225-Reviews-Ai_Mori_d_Oriente_Hotel-Venice_Veneto.html", "reviews": 3430, "rating": 4.5, "price_range_usd": {"min": 97, "max": 212}, "phone": "+39 041 711001", "address": "Fondamenta Della Sensa Cannaregio 3319, 30121 Venice Italy", "detailed_address": {"street": "Fondamenta Della Sensa Cannaregio 3319", "city": "Venice", "postal_code": "30121", "state": null, "country": "Italy"}, "ranking": {"current_rank": 34, "total": 366}, "featured_image": null, "latitude": 45.4459, "longitude": 12.330307, "amenities": ["Free Wifi", "Breakfast included", "Room service", "Bar/Lounge"], "providers": ["Booking.com"]}, {"id": 228961, "name": "Hotel Carlton On The Grand Canal", "link": "https://www.tripadvisor.com/Hotel_Review-g187870-d228961-Reviews-Hotel_Carlton_On_The_Grand_Canal-Venice_Veneto.html", "reviews": 3903, "rating": 4, "price_range_usd": {"min": 75, "max": 251}, "phone": "+39 394 1275 2200", "address": "Fondamenta del Monastero, 578, 30135 Venice Italy", "detailed_address": {"street": "Fondamenta del Monastero, 578", "city": "Venice", "postal_code": "30135", "state": null, "country": "Italy"}, "ranking": {"current_rank": 220, "total": 366}, "featured_image": null, "latitude": 45.44007, "longitude": 12.32187, "amenities": ["Breakfast included", "Restaurant", "Airport transportation", "Room service", "Bar/Lounge"], "providers": ["Booking.com"]}, {"id": 202693, "name": "The St. Regis Venice", "link": "https://www.tripadvisor.com/Hotel_Review-g187870-d202693-Reviews-The_St_Regis_Venice-Venice_Veneto.html", "reviews": 395, "rating": 4.5, "price_range_usd": {"min": 984, "max": 1570}, "phone": "+39 041 240 0001", "address": "San Marco 2159, 30124 Venice Italy", "detailed_address": {"street": "San Marco 2159", "city": "Venice", "postal_code": "30124", "state": null, "country": "Italy"}, "ranking": {"current_rank": 57, "total": 366}, "featured_image": null, "latitude": 45.431934, "longitude": 12.33549, "amenities": ["Free Wifi", "Restaurant", "Airport transportation", "Room service", "Bar/Lounge"], "providers": ["Expedia.com"]}, {"id": 651332, "name": "Hotel Palazzo Stern", "link": "https://www.tripadvisor.com/Hotel_Review-g187870-d651332-Reviews-Hotel_Palazzo_Stern-Venice_Veneto.html", "reviews": 2429, "rating": 5, "price_range_usd": {"min": 254, "max": 486}, "phone": "+39 041 277 0869", "address": "Dorsoduro 2792/A, 30123 Venice Italy", "detailed_address": {"street": "Dorsoduro 2792/A", "city": "Venice", "postal_code": "30123", "state": null, "country": "Italy"}, "ranking": {"current_rank": 29, "total": 366}, "featured_image": null, "latitude": 45.433044, "longitude": 12.326824, "amenities": ["Free Wifi", "Breakfast included", "Airport transportation", "Room service", "Pets Allowed"], "providers": ["Booking.com"]}, {"id": 15458491, "name": "H10 Palazzo Canova", "link": "https://www.tripadvisor.com/Hotel_Review-g187870-d15458491-Reviews-H10_Palazzo_Canova-Venice_Veneto.html", "reviews": 545, "rating": 5, "price_range_usd": {"min": 198, "max": 491}, "phone": "+39 041 520 0172", "address": "Riva Del Vin 744, 30125 Venice Italy", "detailed_address": {"street": "Riva Del Vin 744", "city": "Venice", "postal_code": "30125", "state": null, "country": "Italy"}, "ranking": {"current_rank": 26, "total": 366}, "featured_image": null, "latitude": 45.43733, "longitude": 12.334058, "amenities": ["Free Wifi", "Restaurant", "Room service", "Bar/Lounge"], "providers": ["Booking.com"]}, {"id": 4045226, "name": "Aqua B", "link": "https://www.tripadvisor.com/Hotel_Review-g187870-d4045226-Reviews-Aqua_B-Venice_Veneto.html", "reviews": 207, "rating": 5, "price_range_usd": {"min": 101, "max": 274}, "phone": "+39 041 241 3434", "address": "Ramo Licini 5504 Castello, 30122 Venice Italy", "detailed_address": {"street": "Ramo Licini 5504, Castello", "city": "Venice", "postal_code": "30122", "state": null, "country": "Italy"}, "ranking": {"current_rank": 19, "total": 479}, "featured_image": null, "latitude": 45.436695, "longitude": 12.338374, "amenities": ["Free Wifi", "Breakfast included", "Airport transportation", "Room service"], "providers": ["Expedia.com"]}, {"id": 13451299, "name": "AC Hotel Venezia", "link": "https://www.tripadvisor.com/Hotel_Review-g187870-d13451299-Reviews-AC_Hotel_Venezia-Venice_Veneto.html", "reviews": 374, "rating": 4, "price_range_usd": {"min": 180, "max": 287}, "phone": "+39 041 852 0321", "address": "Rio Tera Sant'andrea 466, 30135 Venice Italy", "detailed_address": {"street": "Rio Tera Sant'andrea 466", "city": "Venice", "postal_code": "30135", "state": null, "country": "Italy"}, "ranking": {"current_rank": 149, "total": 366}, "featured_image": null, "latitude": 45.43733, "longitude": 12.318195, "amenities": ["Free Wifi", "Restaurant", "Room service", "Bar/Lounge"], "providers": ["Booking.com"]}, {"id": 657313, "name": "Palazzo San Luca", "link": "https://www.tripadvisor.com/Hotel_Review-g187870-d657313-Reviews-Palazzo_San_Luca-Venice_Veneto.html", "reviews": 423, "rating": 4.5, "price_range_usd": {"min": 116, "max": 253}, "phone": "+39 041 241 2614", "address": "San Marco 4066, 30124 Venice Italy", "detailed_address": {"street": "San Marco 4066", "city": "Venice", "postal_code": "30124", "state": null, "country": "Italy"}, "ranking": {"current_rank": 21, "total": 479}, "featured_image": null, "latitude": 45.435726, "longitude": 12.333902, "amenities": ["Free Wifi"], "providers": ["Booking.com"]}, {"id": 229053, "name": "NH Venezia Santa Lucia", "link": "https://www.tripadvisor.com/Hotel_Review-g187870-d229053-Reviews-NH_Venezia_Santa_Lucia-Venice_Veneto.html", "reviews": 2060, "rating": 4, "price_range_usd": {"min": 140, "max": 277}, "phone": "+39 041 524 2488", "address": "Rio Tera Lista di Spagna, 116/A, 30121 Venice Italy", "detailed_address": {"street": "Rio Tera Lista di Spagna, 116/A", "city": "Venice", "postal_code": "30121", "state": null, "country": "Italy"}, "ranking": {"current_rank": 168, "total": 366}, "featured_image": null, "latitude": 45.441715, "longitude": 12.322614, "amenities": ["Free Wifi", "Breakfast included", "Restaurant", "Room service", "Bar/Lounge"], "providers": ["NH Hotels"]}, {"id": 202739, "name": "BW Premier Collection CHC Continental", "link": "https://www.tripadvisor.com/Hotel_Review-g187870-d202739-Reviews-BW_Premier_Collection_CHC_Continental-Venice_Veneto.html", "reviews": 495, "rating": 4, "price_range_usd": {"min": 118, "max": 253}, "phone": "+39 041 715122", "address": "Lista Di Spagna 166, 30121 Venice Italy", "detailed_address": {"street": "Lista Di Spagna 166", "city": "Venice", "postal_code": "30121", "state": null, "country": "Italy"}, "ranking": {"current_rank": 200, "total": 366}, "featured_image": null, "latitude": 45.442024, "longitude": 12.324053, "amenities": ["Free Wifi", "Breakfast included", "Restaurant", "Room service", "Bar/Lounge"], "providers": ["Booking.com"]}, {"id": 1057391, "name": "Ruzzini Palace Hotel", "link": "https://www.tripadvisor.com/Hotel_Review-g187870-d1057391-Reviews-Ruzzini_Palace_Hotel-Venice_Veneto.html", "reviews": 2603, "rating": 5, "price_range_usd": {"min": 158, "max": 364}, "phone": "+39 041 241 0447", "address": "Castello 5866, 30122 Venice Italy", "detailed_address": {"street": "Castello 5866", "city": "Venice", "postal_code": "30122", "state": null, "country": "Italy"}, "ranking": {"current_rank": 4, "total": 366}, "featured_image": null, "latitude": 45.437744, "longitude": 12.340649, "amenities": ["Free Wifi", "Airport transportation", "Room service", "Pets Allowed", "Bar/Lounge"], "providers": ["Booking.com"]}, {"id": 25365451, "name": "Nolinski Venezia Evok Collection", "link": "https://www.tripadvisor.com/Hotel_Review-g187870-d25365451-Reviews-Nolinski_Venezia_Evok_Collection-Venice_Veneto.html", "reviews": 39, "rating": 5, "price_range_usd": {"min": 576, "max": 914}, "phone": "+39 041 406 2459", "address": "Calle Larga XXII Marzo, 2032, 30124 Venice Italy", "detailed_address": {"street": "Calle Larga XXII Marzo, 2032", "city": "Venice", "postal_code": "30124", "state": null, "country": "Italy"}, "ranking": {"current_rank": 181, "total": 366}, "featured_image": null, "latitude": 45.432972, "longitude": 12.334648, "amenities": ["Free Wifi", "Pool", "Heated pool", "Indoor pool", "Restaurant"], "providers": ["Booking.com"]}, {"id": 202690, "name": "Residenza D'Epoca San Cassiano", "link": "https://www.tripadvisor.com/Hotel_Review-g187870-d202690-Reviews-Residenza_D_Epoca_San_Cassiano-Venice_Veneto.html", "reviews": 1580, "rating": 4.5, "price_range_usd": {"min": 92, "max": 284}, "phone": "+39 041 524 1768", "address": "Santa Croce 2232, 30135 Venice Italy", "detailed_address": {"street": "Santa Croce 2232", "city": "Venice", "postal_code": "30135", "state": null, "country": "Italy"}, "ranking": {"current_rank": 97, "total": 366}, "featured_image": null, "latitude": 45.440674, "longitude": 12.332496, "amenities": ["Free Wifi", "Bar/Lounge"], "providers": ["Booking.com"]}, {"id": 260782, "name": "Albergo Marin", "link": "https://www.tripadvisor.com/Hotel_Review-g187870-d260782-Reviews-Albergo_Marin-Venice_Veneto.html", "reviews": 1291, "rating": 4.5, "price_range_usd": {"min": 87, "max": 168}, "phone": "+39 041 718022", "address": "Ramo alle Chioverete, 670/B, 30135 Venice Italy", "detailed_address": {"street": "Ramo alle Chioverete, 670/B", "city": "Venice", "postal_code": "30135", "state": null, "country": "Italy"}, "ranking": {"current_rank": 49, "total": 366}, "featured_image": null, "latitude": 45.43953, "longitude": 12.322803, "amenities": ["Free Wifi", "Breakfast included", "Bar/Lounge"], "providers": ["Booking.com"]}, {"id": 529161, "name": "Hotel Adua", "link": "https://www.tripadvisor.com/Hotel_Review-g187870-d529161-Reviews-Hotel_Adua-Venice_Veneto.html", "reviews": 514, "rating": 3.5, "price_range_usd": {"min": 48, "max": 120}, "phone": "+39 041 716184", "address": "Sestiere di Canareggio 233, 30121 Venice Italy", "detailed_address": {"street": "Sestiere di Canareggio 233", "city": "Venice", "postal_code": "30121", "state": null, "country": "Italy"}, "ranking": {"current_rank": 160, "total": 479}, "featured_image": null, "latitude": 45.44253, "longitude": 12.324218, "amenities": ["Free Wifi", "Pets Allowed"], "providers": ["Booking.com"]}, {"id": 648266, "name": "Ca' Sagredo Hotel", "link": "https://www.tripadvisor.com/Hotel_Review-g187870-d648266-Reviews-Ca_Sagredo_Hotel-Venice_Veneto.html", "reviews": 1515, "rating": 4.5, "price_range_usd": {"min": 220, "max": 438}, "phone": "+39 041 241 3111", "address": "Campo Santa Sofia 4198/99, 30121 Venice Italy", "detailed_address": {"street": "Campo Santa Sofia 4198/99", "city": "Venice", "postal_code": "30121", "state": null, "country": "Italy"}, "ranking": {"current_rank": 120, "total": 366}, "featured_image": null, "latitude": 45.44075, "longitude": 12.334679, "amenities": ["Free Wifi", "Breakfast included", "Restaurant", "Room service", "Pets Allowed"], "providers": ["Booking.com"]}, {"id": 907563, "name": "Maison Venezia UNA Esperienze", "link": "https://www.tripadvisor.com/Hotel_Review-g187870-d907563-Reviews-Maison_Venezia_UNA_Esperienze-Venice_Veneto.html", "reviews": 1525, "rating": 4.5, "price_range_usd": {"min": 126, "max": 274}, "phone": "+39 041 244 2711", "address": "Ruga do Pozzi 4173 Cannaregio, 30121 Venice Italy", "detailed_address": {"street": "Ruga do Pozzi 4173, Cannaregio", "city": "Venice", "postal_code": "30121", "state": null, "country": "Italy"}, "ranking": {"current_rank": 80, "total": 366}, "featured_image": null, "latitude": 45.441807, "longitude": 12.336108, "amenities": ["Free Wifi", "Pets Allowed"], "providers": ["Booking.com"]}, {"id": 202684, "name": "Hotel Papadopoli Venezia - MGallery", "link": "https://www.tripadvisor.com/Hotel_Review-g187870-d202684-Reviews-Hotel_Papadopoli_Venezia_MGallery-Venice_Veneto.html", "reviews": 3039, "rating": 4.5, "price_range_usd": {"min": 194, "max": 382}, "phone": "+39 041 710400", "address": "Via Santa Croce 245 Giardini Papadopoli, 30135 Venice Italy", "detailed_address": {"street": "Via Santa Croce 245, Giardini Papadopoli", "city": "Venice", "postal_code": "30135", "state": null, "country": "Italy"}, "ranking": {"current_rank": 51, "total": 366}, "featured_image": null, "latitude": 45.438114, "longitude": 12.321218, "amenities": ["Free Wifi", "Restaurant", "Airport transportation", "Room service", "Bar/Lounge"], "providers": ["Booking.com"]}, {"id": 202694, "name": "Splendid Venice - Starhotels Collezione", "link": "https://www.tripadvisor.com/Hotel_Review-g187870-d202694-Reviews-Splendid_Venice_Starhotels_Collezione-Venice_Veneto.html", "reviews": 3637, "rating": 4.5, "price_range_usd": {"min": 209, "max": 400}, "phone": "+39 041 520 0755", "address": "San Marco Mercerie, 760, 30124 Venice Italy", "detailed_address": {"street": "San Marco Mercerie, 760", "city": "Venice", "postal_code": "30124", "state": null, "country": "Italy"}, "ranking": {"current_rank": 93, "total": 366}, "featured_image": null, "latitude": 45.43588, "longitude": 12.337583, "amenities": ["Free Wifi", "Restaurant", "Room service", "Pets Allowed", "Bar/Lounge"], "providers": ["Booking.com"]}, {"id": 286556, "name": "Eurostars Residenza Cannaregio", "link": "https://www.tripadvisor.com/Hotel_Review-g187870-d286556-Reviews-Eurostars_Residenza_Cannaregio-Venice_Veneto.html", "reviews": 1185, "rating": 4, "price_range_usd": {"min": 87, "max": 248}, "phone": "+39 041 524 4332", "address": "Calle dei Riformati 3210/A Cannaregio, 30121 Venice Italy", "detailed_address": {"street": "Calle dei Riformati 3210/A, Cannaregio", "city": "Venice", "postal_code": "30121", "state": null, "country": "Italy"}, "ranking": {"current_rank": 186, "total": 366}, "featured_image": null, "latitude": 45.44735, "longitude": 12.327033, "amenities": ["Free Wifi", "Airport transportation", "Bar/Lounge"], "providers": ["Booking.com"]}, {"id": 3592374, "name": "Hotel Ai Reali di Venezia", "link": "https://www.tripadvisor.com/Hotel_Review-g187870-d3592374-Reviews-Hotel_Ai_Reali_di_Venezia-Venice_Veneto.html", "reviews": 1821, "rating": 4.5, "price_range_usd": {"min": 251, "max": 530}, "phone": "+39 041 241 0253", "address": "Castello, Campo Della Fava 5527, 30125 Venice Italy", "detailed_address": {"street": "Castello, Campo Della Fava 5527", "city": "Venice", "postal_code": "30125", "state": null, "country": "Italy"}, "ranking": {"current_rank": 69, "total": 366}, "featured_image": null, "latitude": 45.437218, "longitude": 12.33773, "amenities": ["Free Wifi", "Restaurant", "Room service", "Bar/Lounge", "Fitness center"], "providers": ["Booking.com"]}, {"id": 239486, "name": "Hotel Marconi", "link": "https://www.tripadvisor.com/Hotel_Review-g187870-d239486-Reviews-Hotel_Marconi-Venice_Veneto.html", "reviews": 871, "rating": 4, "price_range_usd": {"min": 101, "max": 278}, "phone": "+39 041 522 2068", "address": "Riva del Vin, San Polo, 729, 30125 Venice Italy", "detailed_address": {"street": "Riva del Vin, San Polo, 729", "city": "Venice", "postal_code": "30125", "state": null, "country": "Italy"}, "ranking": {"current_rank": 194, "total": 366}, "featured_image": null, "latitude": 45.43812, "longitude": 12.335056, "amenities": ["Free Wifi", "Breakfast included", "Pets Allowed"], "providers": ["Booking.com"]}, {"id": 237391, "name": "Hotel Canaletto", "link": "https://www.tripadvisor.com/Hotel_Review-g187870-d237391-Reviews-Hotel_Canaletto-Venice_Veneto.html", "reviews": 1548, "rating": 4, "price_range_usd": {"min": 96, "max": 227}, "phone": "+39 041 522 0518", "address": "Castello 5487 Calle Della Malvasia, 30122 Venice Italy", "detailed_address": {"street": "Castello 5487, Calle Della Malvasia", "city": "Venice", "postal_code": "30122", "state": null, "country": "Italy"}, "ranking": {"current_rank": 106, "total": 366}, "featured_image": null, "latitude": 45.436874, "longitude": 12.338942, "amenities": ["Free Wifi", "Breakfast included", "Room service", "Pets Allowed", "Bar/Lounge"], "providers": ["Booking.com"]}, {"id": 1436873, "name": "Hotel San Luca", "link": "https://www.tripadvisor.com/Hotel_Review-g187870-d1436873-Reviews-Hotel_San_Luca-Venice_Veneto.html", "reviews": 472, "rating": 4, "price_range_usd": {"min": 66, "max": 177}, "phone": "+39 041 296 0833", "address": "Calle dei Fabbri, 4671, 30124 Venice Italy", "detailed_address": {"street": "Calle dei Fabbri, 4671", "city": "Venice", "postal_code": "30124", "state": null, "country": "Italy"}, "ranking": {"current_rank": 185, "total": 366}, "featured_image": null, "latitude": 45.43595, "longitude": 12.335846, "amenities": ["Free Wifi", "Pets Allowed"], "providers": ["Booking.com"]}, {"id": 23529240, "name": "Palazzo Pianca", "link": "https://www.tripadvisor.com/Hotel_Review-g187870-d23529240-Reviews-Palazzo_Pianca-Venice_Veneto.html", "reviews": 44, "rating": 3.5, "price_range_usd": {"min": 116, "max": 241}, "phone": "+39 041 097 0118", "address": "2475 San Marco, 30124 Venice Italy", "detailed_address": {"street": "2475 San Marco", "city": "Venice", "postal_code": "30124", "state": null, "country": "Italy"}, "ranking": {"current_rank": 73, "total": 340}, "featured_image": null, "latitude": 45.432182, "longitude": 12.332873, "amenities": [], "providers": ["Booking.com"]}, {"id": 233904, "name": "Hotel Torino", "link": "https://www.tripadvisor.com/Hotel_Review-g187870-d233904-Reviews-Hotel_Torino-Venice_Veneto.html", "reviews": 771, "rating": 3.5, "price_range_usd": {"min": 89, "max": 220}, "phone": "+39 041 520 5222", "address": "Calle Delle Ostreghe San Marco 2356, 30124 Venice Italy", "detailed_address": {"street": "Calle Delle Ostreghe San Marco 2356", "city": "Venice", "postal_code": "30124", "state": null, "country": "Italy"}, "ranking": {"current_rank": 237, "total": 366}, "featured_image": null, "latitude": 45.432484, "longitude": 12.333729, "amenities": ["Free Wifi", "Breakfast included"], "providers": ["Booking.com"]}, {"id": 23372191, "name": "Radisson Collection Hotel, Palazzo Nani Venice", "link": "https://www.tripadvisor.com/Hotel_Review-g187870-d23372191-Reviews-Radisson_Collection_Hotel_Palazzo_Nani_Venice-Venice_Veneto.html", "reviews": 201, "rating": 5, "price_range_usd": {"min": 298, "max": 558}, "phone": "+39 041 884 2200", "address": "Fondamenta Cannaregio 1105, 30121 Venice Italy", "detailed_address": {"street": "Fondamenta Cannaregio 1105", "city": "Venice", "postal_code": "30121", "state": null, "country": "Italy"}, "ranking": {"current_rank": 38, "total": 366}, "featured_image": null, "latitude": 45.44453, "longitude": 12.324591, "amenities": ["Free Wifi", "Breakfast included", "Restaurant", "Airport transportation", "Room service"], "providers": ["Radissonhotels.com"]}]}, "error": null}