{"data": {"link": "https://www.tripadvisor.com/Hotels-g187871-oa180-Verona_Province_of_Verona_Veneto-Hotels.html", "total_pages": 38, "current_page": 7, "total_items_count": 1111, "items_count": 30, "results": [{"id": 13413787, "name": "Living Arena", "link": "https://www.tripadvisor.com/Hotel_Review-g187871-d13413787-Reviews-Living_Arena-Verona_Province_of_Verona_Veneto.html", "reviews": 27, "rating": 5, "price_range_usd": {"min": 105, "max": 184}, "phone": null, "address": "Via dei Mutilati, 37122, Verona Italy", "detailed_address": {"street": "Via dei Mutilati", "city": null, "postal_code": "37122", "state": null, "country": "Italy"}, "ranking": {"current_rank": 49, "total": 344}, "featured_image": null, "latitude": 45.4377, "longitude": 10.99056, "amenities": ["Free Wifi"], "providers": []}, {"id": 1998722, "name": "Residenza Le Batesine", "link": "https://www.tripadvisor.com/Hotel_Review-g187871-d1998722-Reviews-Residenza_Le_Batesine-Verona_Province_of_Verona_Veneto.html", "reviews": 307, "rating": 5, "price_range_usd": {"min": null, "max": null}, "phone": "+39 338 946 0673", "address": "Via Brigata Aosta 51 a, 37139, Verona Italy", "detailed_address": {"street": "Via Brigata Aosta 51 a", "city": null, "postal_code": "37139", "state": null, "country": "Italy"}, "ranking": {"current_rank": 6, "total": 466}, "featured_image": null, "latitude": 45.436264, "longitude": 10.943191, "amenities": ["Free Wifi", "Free parking", "Breakfast included", "Pool", "Outdoor pool"], "providers": []}, {"id": 8311348, "name": "Il Cappello di Giulietta", "link": "https://www.tripadvisor.com/Hotel_Review-g187871-d8311348-Reviews-Il_Cappello_di_Giulietta-Verona_Province_of_Verona_Veneto.html", "reviews": 44, "rating": 4.5, "price_range_usd": {"min": 129, "max": 194}, "phone": "+39 392 179 5781", "address": "Via Cappello N. 12, 37121, Verona Italy", "detailed_address": {"street": "Via Cappello N. 12", "city": null, "postal_code": "37121", "state": null, "country": "Italy"}, "ranking": {"current_rank": 151, "total": 466}, "featured_image": null, "latitude": 45.44163, "longitude": 10.99844, "amenities": ["Free Wifi", "Pets Allowed", "Bar/Lounge"], "providers": []}, {"id": 2691114, "name": "B&B 2 Terrazze", "link": "https://www.tripadvisor.com/Hotel_Review-g187871-d2691114-Reviews-B_B_2_Terrazze-Verona_Province_of_Verona_Veneto.html", "reviews": 299, "rating": 5, "price_range_usd": {"min": 176, "max": 329}, "phone": "+39 328 676 3933", "address": "Via Giovanni Zambelli 9, 37121, Verona Italy", "detailed_address": {"street": "Via Giovanni Zambelli 9", "city": null, "postal_code": "37121", "state": null, "country": "Italy"}, "ranking": {"current_rank": 7, "total": 466}, "featured_image": null, "latitude": 45.44023, "longitude": 10.998056, "amenities": ["Free Wifi", "Breakfast included"], "providers": []}, {"id": 27970101, "name": "Domus 44 Rooms", "link": "https://www.tripadvisor.com/Hotel_Review-g187871-d27970101-Reviews-Domus_44_Rooms-Verona_Province_of_Verona_Veneto.html", "reviews": 3, "rating": 5, "price_range_usd": {"min": 66, "max": 181}, "phone": "+39 340 623 1365", "address": "4 Via Franco Faccio, 37122, Verona Italy", "detailed_address": {"street": "4 Via Franco Faccio", "city": null, "postal_code": "37122", "state": null, "country": "Italy"}, "ranking": {"current_rank": 290, "total": 466}, "featured_image": null, "latitude": 45.430103, "longitude": 10.989302, "amenities": [], "providers": []}, {"id": 615790, "name": "All'Arena Bed and Breakfast", "link": "https://www.tripadvisor.com/Hotel_Review-g187871-d615790-Reviews-All_Arena_Bed_and_Breakfast-Verona_Province_of_Verona_Veneto.html", "reviews": 21, "rating": 4, "price_range_usd": {"min": 91, "max": 174}, "phone": "+39 328 942 4255", "address": "Via San Nicolo' 3, 37121, Verona Italy", "detailed_address": {"street": "Via San Nicolo' 3", "city": null, "postal_code": "37121", "state": null, "country": "Italy"}, "ranking": {"current_rank": 245, "total": 466}, "featured_image": null, "latitude": 45.44019, "longitude": 10.99528, "amenities": ["Free Wifi"], "providers": []}, {"id": 2001185, "name": "B&B Cuore di Giulietta", "link": "https://www.tripadvisor.com/Hotel_Review-g187871-d2001185-Reviews-B_B_Cuore_di_Giulietta-Verona_Province_of_Verona_Veneto.html", "reviews": 575, "rating": 5, "price_range_usd": {"min": 67, "max": 104}, "phone": "+39 327 475 5452", "address": "Via Ippolito Nievo 15, 37128, Verona Italy", "detailed_address": {"street": "Via Ippolito Nievo 15", "city": null, "postal_code": "37128", "state": null, "country": "Italy"}, "ranking": {"current_rank": 13, "total": 466}, "featured_image": null, "latitude": 45.45106, "longitude": 11.00027, "amenities": ["Free Wifi", "Free parking", "Breakfast included"], "providers": []}, {"id": 16677867, "name": "3Jolie Rooms", "link": "https://www.tripadvisor.com/Hotel_Review-g187871-d16677867-Reviews-3Jolie_Rooms-Verona_Province_of_Verona_Veneto.html", "reviews": 4, "rating": 3, "price_range_usd": {"min": 60, "max": 87}, "phone": null, "address": "65 Via Della Valverde, 37122, Verona Italy", "detailed_address": {"street": "65 Via Della Valverde", "city": null, "postal_code": "37122", "state": null, "country": "Italy"}, "ranking": {"current_rank": 260, "total": 344}, "featured_image": null, "latitude": 45.43479, "longitude": 10.98624, "amenities": [], "providers": []}, {"id": 2036402, "name": "B&B Corte delle Pigne", "link": "https://www.tripadvisor.com/Hotel_Review-g187871-d2036402-Reviews-B_B_Corte_delle_Pigne-Verona_Province_of_Verona_Veneto.html", "reviews": 336, "rating": 5, "price_range_usd": {"min": null, "max": null}, "phone": "+39 (0)333 7584141", "address": "Via Pigna 6/A, 37121, Verona Italy", "detailed_address": {"street": "Via Pigna 6/A", "city": null, "postal_code": "37121", "state": null, "country": "Italy"}, "ranking": {"current_rank": 14, "total": 466}, "featured_image": null, "latitude": 45.44594, "longitude": 10.99749, "amenities": ["Free Wifi", "Breakfast included", "Room service"], "providers": []}, {"id": 1725877, "name": "Alle Piscine Verona", "link": "https://www.tripadvisor.com/Hotel_Review-g187871-d1725877-Reviews-Alle_Piscine_Verona-Verona_Province_of_Verona_Veneto.html", "reviews": 112, "rating": 4.5, "price_range_usd": {"min": 75, "max": 87}, "phone": "+39 348 703 2897", "address": "Viale Colonnello Galliano 19, 37138, Verona Italy", "detailed_address": {"street": "Viale Colonnello Galliano 19", "city": null, "postal_code": "37138", "state": null, "country": "Italy"}, "ranking": {"current_rank": 101, "total": 466}, "featured_image": null, "latitude": 45.43875, "longitude": 10.97517, "amenities": ["Free Wifi", "Free parking", "Breakfast included", "Pets Allowed", "Bar/Lounge"], "providers": []}, {"id": 5528614, "name": "Alloggio La Pesa", "link": "https://www.tripadvisor.com/Hotel_Review-g187871-d5528614-Reviews-Alloggio_La_Pesa-Verona_Province_of_Verona_Veneto.html", "reviews": 16, "rating": 4.5, "price_range_usd": {"min": 89, "max": 111}, "phone": "+39 045 550368", "address": "Via Poiano 133, 37142, Verona Italy", "detailed_address": {"street": "Via Poiano 133", "city": null, "postal_code": "37142", "state": null, "country": "Italy"}, "ranking": {"current_rank": 275, "total": 466}, "featured_image": null, "latitude": 45.47599, "longitude": 11.01795, "amenities": ["Free Wifi", "Airport transportation"], "providers": []}, {"id": 18190572, "name": "Ca Toresele Relais", "link": "https://www.tripadvisor.com/Hotel_Review-g187871-d18190572-Reviews-Ca_Toresele_Relais-Verona_Province_of_Verona_Veneto.html", "reviews": 25, "rating": 5, "price_range_usd": {"min": 135, "max": 179}, "phone": "+39 045 245 6825", "address": "Viale Dei Colli 41, 37128, Verona Italy", "detailed_address": {"street": "Viale Dei Colli 41", "city": null, "postal_code": "37128", "state": null, "country": "Italy"}, "ranking": {"current_rank": 57, "total": 344}, "featured_image": null, "latitude": 45.462925, "longitude": 10.994918, "amenities": ["Free Wifi", "Free parking", "Restaurant", "Airport transportation", "Room service"], "providers": []}, {"id": 27975644, "name": "Albergo Mazzanti", "link": "https://www.tripadvisor.com/Hotel_Review-g187871-d27975644-Reviews-Albergo_Mazzanti-Verona_Province_of_Verona_Veneto.html", "reviews": 3, "rating": 4, "price_range_usd": {"min": 113, "max": 192}, "phone": "+39 045 591690", "address": "Via Mazzanti, 6, 37121, Verona Italy", "detailed_address": {"street": "Via Mazzanti, 6", "city": null, "postal_code": "37121", "state": null, "country": "Italy"}, "ranking": {"current_rank": 73, "total": 87}, "featured_image": null, "latitude": 45.443623, "longitude": 10.997322, "amenities": [], "providers": []}, {"id": 7617242, "name": "San Giacomo Bed & Breakfast", "link": "https://www.tripadvisor.com/Hotel_Review-g187871-d7617242-Reviews-San_Giacomo_Bed_Breakfast-Verona_Province_of_Verona_Veneto.html", "reviews": 22, "rating": 5, "price_range_usd": {"min": 117, "max": 133}, "phone": "+39 349 852 2710", "address": "Via Pigna 15, 37121, Verona Italy", "detailed_address": {"street": "Via Pigna 15", "city": null, "postal_code": "37121", "state": null, "country": "Italy"}, "ranking": {"current_rank": 201, "total": 466}, "featured_image": null, "latitude": 45.446037, "longitude": 10.997293, "amenities": ["Free Wifi"], "providers": []}, {"id": 15564815, "name": "Vitti's Home", "link": "https://www.tripadvisor.com/Hotel_Review-g187871-d15564815-Reviews-Vitti_s_Home-Verona_Province_of_Verona_Veneto.html", "reviews": 23, "rating": 3.5, "price_range_usd": {"min": 66, "max": 105}, "phone": "+39 320 017 8860", "address": "Via del Perlar 35, 37135, Verona Italy", "detailed_address": {"street": "Via del Perlar 35", "city": null, "postal_code": "37135", "state": null, "country": "Italy"}, "ranking": {"current_rank": 321, "total": 466}, "featured_image": null, "latitude": 45.41111, "longitude": 10.967242, "amenities": ["Free Wifi", "Free parking", "Airport transportation", "Pets Allowed"], "providers": []}, {"id": 13423959, "name": "Alexandra's House", "link": "https://www.tripadvisor.com/Hotel_Review-g187871-d13423959-Reviews-Alexandra_s_House-Verona_Province_of_Verona_Veneto.html", "reviews": 11, "rating": 4.5, "price_range_usd": {"min": 69, "max": 91}, "phone": null, "address": "Viale Andrea Palladio 19/E, 37138, Verona Italy", "detailed_address": {"street": "Viale Andrea Palladio 19/E", "city": null, "postal_code": "37138", "state": null, "country": "Italy"}, "ranking": {"current_rank": 121, "total": 344}, "featured_image": null, "latitude": 45.43048, "longitude": 10.9755, "amenities": ["Bar/Lounge"], "providers": []}, {"id": 27170920, "name": "Forum Suites", "link": "https://www.tripadvisor.com/Hotel_Review-g187871-d27170920-Reviews-Forum_Suites-Verona_Province_of_Verona_Veneto.html", "reviews": 2, "rating": 3.5, "price_range_usd": {"min": 147, "max": 192}, "phone": null, "address": "6 Via Fratelli Cairoli, 37121, Verona Italy", "detailed_address": {"street": "6 Via Fratelli Cairoli", "city": null, "postal_code": "37121", "state": null, "country": "Italy"}, "ranking": {"current_rank": 410, "total": 466}, "featured_image": null, "latitude": 45.442577, "longitude": 10.998121, "amenities": [], "providers": []}, {"id": 1847902, "name": "Agriturismo La Perlara", "link": "https://www.tripadvisor.com/Hotel_Review-g187871-d1847902-Reviews-Agriturismo_La_Perlara-Verona_Province_of_Verona_Veneto.html", "reviews": 118, "rating": 4.5, "price_range_usd": {"min": 98, "max": 109}, "phone": "+39 045 978 1016", "address": "Via Trezzolano 17, Verona, 37141, Verona Italy", "detailed_address": {"street": "Via Trezzolano 17, Verona", "city": null, "postal_code": "37141", "state": null, "country": "Italy"}, "ranking": {"current_rank": 34, "total": 344}, "featured_image": null, "latitude": 45.50227, "longitude": 11.081403, "amenities": ["Free parking", "Breakfast included", "Pool", "Outdoor pool"], "providers": []}, {"id": 3171914, "name": "Relais dell'Abbazia", "link": "https://www.tripadvisor.com/Hotel_Review-g187871-d3171914-Reviews-Relais_dell_Abbazia-Verona_Province_of_Verona_Veneto.html", "reviews": 144, "rating": 5, "price_range_usd": {"min": 197, "max": 260}, "phone": "+39 348 705 9368", "address": "Vicolo Dietro Caserma Chiodo 18, 37123, Verona Italy", "detailed_address": {"street": "Vicolo Dietro Caserma Chiodo 18", "city": null, "postal_code": "37123", "state": null, "country": "Italy"}, "ranking": {"current_rank": 61, "total": 466}, "featured_image": null, "latitude": 45.44233, "longitude": 10.98074, "amenities": ["Free Wifi", "Breakfast included", "Pets Allowed"], "providers": []}, {"id": 2310835, "name": "Il Relais della Locanda", "link": "https://www.tripadvisor.com/Hotel_Review-g187871-d2310835-Reviews-Il_Relais_della_Locanda-Verona_Province_of_Verona_Veneto.html", "reviews": 87, "rating": 5, "price_range_usd": {"min": 316, "max": 425}, "phone": "+39 045 803 6494", "address": "Corso Castelvecchio 23, 37121, Verona Italy", "detailed_address": {"street": "Corso Castelvecchio 23", "city": null, "postal_code": "37121", "state": null, "country": "Italy"}, "ranking": {"current_rank": 70, "total": 466}, "featured_image": null, "latitude": 45.439045, "longitude": 10.987254, "amenities": ["Free Wifi", "Breakfast included"], "providers": []}, {"id": 3360220, "name": "Residenza Madonna Verona", "link": "https://www.tripadvisor.com/Hotel_Review-g187871-d3360220-Reviews-Residenza_Madonna_Verona-Verona_Province_of_Verona_Veneto.html", "reviews": 53, "rating": 4.5, "price_range_usd": {"min": 96, "max": 145}, "phone": "+39 348 420 0029", "address": "Corso Porta Borsari 1, 37121, Verona Italy", "detailed_address": {"street": "Corso Porta Borsari 1", "city": null, "postal_code": "37121", "state": null, "country": "Italy"}, "ranking": {"current_rank": 166, "total": 466}, "featured_image": null, "latitude": 45.44353, "longitude": 10.99658, "amenities": ["Free Wifi"], "providers": []}, {"id": 3802325, "name": "Loftverona", "link": "https://www.tripadvisor.com/Hotel_Review-g187871-d3802325-Reviews-Loftverona-Verona_Province_of_Verona_Veneto.html", "reviews": 57, "rating": 5, "price_range_usd": {"min": 99, "max": 140}, "phone": "+39 348 584 0590", "address": "Via San Marco 36, 37138, Verona Italy", "detailed_address": {"street": "Via San Marco 36", "city": null, "postal_code": "37138", "state": null, "country": "Italy"}, "ranking": {"current_rank": 129, "total": 466}, "featured_image": null, "latitude": 45.44027, "longitude": 10.97309, "amenities": ["Free Wifi", "Breakfast included", "Pets Allowed"], "providers": []}, {"id": 237423, "name": "Hotel Siros", "link": "https://www.tripadvisor.com/Hotel_Review-g187871-d237423-Reviews-Hotel_Siros-Verona_Province_of_Verona_Veneto.html", "reviews": 52, "rating": 3.5, "price_range_usd": {"min": 106, "max": 136}, "phone": "+39 045 820 4123", "address": "Via Bengasi, 26/A, 37134, Verona Italy", "detailed_address": {"street": "Via Bengasi, 26/A", "city": null, "postal_code": "37134", "state": null, "country": "Italy"}, "ranking": {"current_rank": 62, "total": 87}, "featured_image": null, "latitude": 45.40631, "longitude": 10.99402, "amenities": ["Free Wifi", "Free parking", "Pets Allowed"], "providers": []}, {"id": 15558863, "name": "Santa Teresa House", "link": "https://www.tripadvisor.com/Hotel_Review-g187871-d15558863-Reviews-Santa_Teresa_House-Verona_Province_of_Verona_Veneto.html", "reviews": 42, "rating": 4, "price_range_usd": {"min": 109, "max": 142}, "phone": "+39 045 554 7894", "address": "Via Pier Fortunato Calvi 10, 37135, Verona Italy", "detailed_address": {"street": "Via Pier Fortunato Calvi 10", "city": null, "postal_code": "37135", "state": null, "country": "Italy"}, "ranking": {"current_rank": 139, "total": 466}, "featured_image": null, "latitude": 45.417217, "longitude": 10.988574, "amenities": ["Free Wifi", "Breakfast included", "Pets Allowed"], "providers": []}, {"id": 4725729, "name": "Le Flaneur Bed and Breakfast", "link": "https://www.tripadvisor.com/Hotel_Review-g187871-d4725729-Reviews-Le_Flaneur_Bed_and_Breakfast-Verona_Province_of_Verona_Veneto.html", "reviews": 101, "rating": 5, "price_range_usd": {"min": 116, "max": 160}, "phone": "+39 348 969 5231", "address": "Via Seghe San Tomaso 19, 37129, Verona Italy", "detailed_address": {"street": "Via Seghe San Tomaso 19", "city": null, "postal_code": "37129", "state": null, "country": "Italy"}, "ranking": {"current_rank": 56, "total": 466}, "featured_image": null, "latitude": 45.4444, "longitude": 11.003178, "amenities": ["Free Wifi", "Breakfast included"], "providers": []}, {"id": 2144242, "name": "B&B Il Tulipano", "link": "https://www.tripadvisor.com/Hotel_Review-g187871-d2144242-Reviews-B_B_Il_Tulipano-Verona_Province_of_Verona_Veneto.html", "reviews": 259, "rating": 4.5, "price_range_usd": {"min": null, "max": null}, "phone": "+39 045 810 4141", "address": "Viale Colonnello Galliano 3A, 37138, Verona Italy", "detailed_address": {"street": "Viale Colonnello Galliano 3A", "city": null, "postal_code": "37138", "state": null, "country": "Italy"}, "ranking": {"current_rank": 20, "total": 466}, "featured_image": null, "latitude": 45.43562, "longitude": 10.9783, "amenities": ["Free Wifi", "Free parking", "Breakfast included"], "providers": []}, {"id": 1508057, "name": "Casa & Natura Breviglieri", "link": "https://www.tripadvisor.com/Hotel_Review-g187871-d1508057-Reviews-Casa_Natura_Breviglieri-Verona_Province_of_Verona_Veneto.html", "reviews": 191, "rating": 5, "price_range_usd": {"min": null, "max": null}, "phone": "+39 045 259 5877", "address": "Via San Nazaro 49, 37129, Verona Italy", "detailed_address": {"street": "Via San Nazaro 49", "city": null, "postal_code": "37129", "state": null, "country": "Italy"}, "ranking": {"current_rank": 21, "total": 466}, "featured_image": null, "latitude": 45.440575, "longitude": 11.011674, "amenities": ["Free Wifi", "Free parking", "Breakfast included", "Pets Allowed"], "providers": []}, {"id": 2013916, "name": "B&B Alla Casa di Lucia", "link": "https://www.tripadvisor.com/Hotel_Review-g187871-d2013916-Reviews-B_B_Alla_Casa_di_Lucia-Verona_Province_of_Verona_Veneto.html", "reviews": 203, "rating": 4.5, "price_range_usd": {"min": 99, "max": 186}, "phone": "+39 333 947 8548", "address": "Via Roma n. 7, 37121, Verona Italy", "detailed_address": {"street": "Via Roma n. 7", "city": null, "postal_code": "37121", "state": null, "country": "Italy"}, "ranking": {"current_rank": 40, "total": 466}, "featured_image": null, "latitude": 45.438774, "longitude": 10.990033, "amenities": ["Free Wifi", "Breakfast included"], "providers": []}, {"id": 15352886, "name": "Dreaming Piazza Bra Rooms", "link": "https://www.tripadvisor.com/Hotel_Review-g187871-d15352886-Reviews-Dreaming_Piazza_Bra_Rooms-Verona_Province_of_Verona_Veneto.html", "reviews": 11, "rating": 3.5, "price_range_usd": {"min": 77, "max": 90}, "phone": null, "address": "Corso Porta Nuova 48, 37122, Verona Italy", "detailed_address": {"street": "Corso Porta Nuova 48", "city": null, "postal_code": "37122", "state": null, "country": "Italy"}, "ranking": {"current_rank": 393, "total": 466}, "featured_image": null, "latitude": 45.43417, "longitude": 10.98905, "amenities": [], "providers": []}, {"id": 15688644, "name": "La Nuova Corte Verona", "link": "https://www.tripadvisor.com/Hotel_Review-g187871-d15688644-Reviews-La_Nuova_Corte_Verona-Verona_Province_of_Verona_Veneto.html", "reviews": 17, "rating": 3, "price_range_usd": {"min": 72, "max": 111}, "phone": null, "address": "Stradone Antonio Provolo 26, 37123, Verona Italy", "detailed_address": {"street": "Stradone Antonio Provolo 26", "city": null, "postal_code": "37123", "state": null, "country": "Italy"}, "ranking": {"current_rank": 224, "total": 344}, "featured_image": null, "latitude": 45.43851, "longitude": 10.98218, "amenities": [], "providers": []}]}, "error": null}