{"data": {"link": "https://www.tripadvisor.com/Hotels-g187870-oa30-Venice_Veneto-Hotels.html", "total_pages": 49, "current_page": 2, "total_items_count": 1467, "items_count": 30, "results": [{"id": 23529240, "name": "Palazzo Pianca", "link": "https://www.tripadvisor.com/Hotel_Review-g187870-d23529240-Reviews-Palazzo_Pianca-Venice_Veneto.html", "reviews": 44, "rating": 3.5, "price_range_usd": {"min": 116, "max": 241}, "phone": "+39 041 097 0118", "address": "2475 San Marco, 30124 Venice Italy", "detailed_address": {"street": "2475 San Marco", "city": "Venice", "postal_code": "30124", "state": null, "country": "Italy"}, "ranking": {"current_rank": 73, "total": 340}, "featured_image": null, "latitude": 45.432182, "longitude": 12.332873, "amenities": [], "providers": []}, {"id": 1205535, "name": "Hotel Firenze", "link": "https://www.tripadvisor.com/Hotel_Review-g187870-d1205535-Reviews-Hotel_Firenze-Venice_Veneto.html", "reviews": 1145, "rating": 4.5, "price_range_usd": {"min": 134, "max": 355}, "phone": "+39 041 522 2858", "address": "Corte Foscara 1490, 30124 Venice Italy", "detailed_address": {"street": "Corte Foscara 1490", "city": "Venice", "postal_code": "30124", "state": null, "country": "Italy"}, "ranking": {"current_rank": 70, "total": 366}, "featured_image": null, "latitude": 45.43338, "longitude": 12.33639, "amenities": ["Free Wifi", "Breakfast included", "Room service", "Bar/Lounge"], "providers": []}, {"id": 233916, "name": "Locanda La Corte", "link": "https://www.tripadvisor.com/Hotel_Review-g187870-d233916-Reviews-Locanda_La_Corte-Venice_Veneto.html", "reviews": 1094, "rating": 4.5, "price_range_usd": {"min": 111, "max": 191}, "phone": "+39 041 241 1300", "address": "Calle Bressana 6317, 30122 Venice Italy", "detailed_address": {"street": "Calle Bressana 6317", "city": "Venice", "postal_code": "30122", "state": null, "country": "Italy"}, "ranking": {"current_rank": 35, "total": 479}, "featured_image": null, "latitude": 45.438515, "longitude": 12.341755, "amenities": ["Free Wifi"], "providers": []}, {"id": 202687, "name": "Arlecchino Hotel", "link": "https://www.tripadvisor.com/Hotel_Review-g187870-d202687-Reviews-Arlecchino_Hotel-Venice_Veneto.html", "reviews": 1494, "rating": 4.5, "price_range_usd": {"min": 135, "max": 257}, "phone": "+39 041 710723", "address": "Santa Croce 390 Fondamenta delle Burchielle, 30135 Venice Italy", "detailed_address": {"street": "Santa Croce 390, Fondamenta delle Burchielle", "city": "Venice", "postal_code": "30135", "state": null, "country": "Italy"}, "ranking": {"current_rank": 98, "total": 366}, "featured_image": null, "latitude": 45.436962, "longitude": 12.319904, "amenities": ["Free Wifi"], "providers": []}, {"id": 239487, "name": "Generator Venice", "link": "https://www.tripadvisor.com/Hotel_Review-g187870-d239487-Reviews-Generator_Venice-Venice_Veneto.html", "reviews": 1806, "rating": 4, "price_range_usd": {"min": 43, "max": 156}, "phone": "+39 041 877 8288", "address": "Fondamenta Zitelle 86, 30133 Venice Italy", "detailed_address": {"street": "Fondamenta Zitelle 86", "city": "Venice", "postal_code": "30133", "state": null, "country": "Italy"}, "ranking": {"current_rank": 15, "total": 340}, "featured_image": null, "latitude": 45.425888, "longitude": 12.336231, "amenities": ["Free Wifi", "Restaurant", "Bar/Lounge"], "providers": []}, {"id": 198785, "name": "Hotel Monaco & Grand Canal", "link": "https://www.tripadvisor.com/Hotel_Review-g187870-d198785-Reviews-Hotel_Monaco_Grand_Canal-Venice_Veneto.html", "reviews": 2099, "rating": 4.5, "price_range_usd": {"min": 277, "max": 487}, "phone": "+39 041 520 0211", "address": "San Marco 1332, 30100 Venice Italy", "detailed_address": {"street": "San Marco 1332", "city": "Venice", "postal_code": "30100", "state": null, "country": "Italy"}, "ranking": {"current_rank": 101, "total": 366}, "featured_image": null, "latitude": 45.432335, "longitude": 12.336941, "amenities": ["Free Wifi", "Restaurant", "Room service"], "providers": []}, {"id": 202690, "name": "Residenza D'Epoca San Cassiano", "link": "https://www.tripadvisor.com/Hotel_Review-g187870-d202690-Reviews-Residenza_D_Epoca_San_Cassiano-Venice_Veneto.html", "reviews": 1580, "rating": 4.5, "price_range_usd": {"min": 92, "max": 284}, "phone": "+39 041 524 1768", "address": "Santa Croce 2232, 30135 Venice Italy", "detailed_address": {"street": "Santa Croce 2232", "city": "Venice", "postal_code": "30135", "state": null, "country": "Italy"}, "ranking": {"current_rank": 97, "total": 366}, "featured_image": null, "latitude": 45.440674, "longitude": 12.332496, "amenities": ["Free Wifi", "Bar/Lounge"], "providers": []}, {"id": 13008910, "name": "Hotel Nani Mocenigo Palace", "link": "https://www.tripadvisor.com/Hotel_Review-g187870-d13008910-Reviews-Hotel_Nani_Mocenigo_Palace-Venice_Veneto.html", "reviews": 358, "rating": 5, "price_range_usd": {"min": 175, "max": 390}, "phone": "+39 041 520 0145", "address": "960 Fondamenta Nani, 30123 Venice Italy", "detailed_address": {"street": "960 Fondamenta Nani", "city": "Venice", "postal_code": "30123", "state": null, "country": "Italy"}, "ranking": {"current_rank": 47, "total": 366}, "featured_image": null, "latitude": 45.43079, "longitude": 12.326596, "amenities": ["Free Wifi", "Breakfast included", "Airport transportation", "Room service", "Pets Allowed"], "providers": []}, {"id": 285089, "name": "All'Angelo Art Hotel", "link": "https://www.tripadvisor.com/Hotel_Review-g187870-d285089-Reviews-All_Angelo_Art_Hotel-Venice_Veneto.html", "reviews": 453, "rating": 4.5, "price_range_usd": {"min": 107, "max": 269}, "phone": "+39 041 520 9299", "address": "Calle de l'Angelo 403, 30124 Venice Italy", "detailed_address": {"street": "Calle de l'Angelo 403", "city": "Venice", "postal_code": "30124", "state": null, "country": "Italy"}, "ranking": {"current_rank": 50, "total": 366}, "featured_image": null, "latitude": 45.43562, "longitude": 12.339972, "amenities": ["Breakfast included", "Room service", "Pets Allowed", "Bar/Lounge"], "providers": []}, {"id": 237373, "name": "Hotel Orion", "link": "https://www.tripadvisor.com/Hotel_Review-g187870-d237373-Reviews-Hotel_Orion-Venice_Veneto.html", "reviews": 1121, "rating": 4, "price_range_usd": {"min": 100, "max": 227}, "phone": "+39 041 522 3053", "address": "San Marco 700/A, 30124 Venice Italy", "detailed_address": {"street": "San Marco 700/A", "city": "Venice", "postal_code": "30124", "state": null, "country": "Italy"}, "ranking": {"current_rank": 130, "total": 366}, "featured_image": null, "latitude": 45.43557, "longitude": 12.338631, "amenities": ["Free Wifi", "Breakfast included"], "providers": []}, {"id": 250920, "name": "Hotel Royal San Marco", "link": "https://www.tripadvisor.com/Hotel_Review-g187870-d250920-Reviews-Hotel_Royal_San_Marco-Venice_Veneto.html", "reviews": 1605, "rating": 3.5, "price_range_usd": {"min": 100, "max": 248}, "phone": "+39 041 528 7665", "address": "Sestiere San Marco 848, 30124 Venice Italy", "detailed_address": {"street": "Sestiere San Marco 848", "city": "Venice", "postal_code": "30124", "state": null, "country": "Italy"}, "ranking": {"current_rank": 265, "total": 366}, "featured_image": null, "latitude": 45.43462, "longitude": 12.337776, "amenities": ["Free Wifi", "Breakfast included", "Restaurant", "Airport transportation", "Bar/Lounge"], "providers": []}, {"id": 235856, "name": "Hotel da Bruno", "link": "https://www.tripadvisor.com/Hotel_Review-g187870-d235856-Reviews-Hotel_da_Bruno-Venice_Veneto.html", "reviews": 1717, "rating": 4.5, "price_range_usd": {"min": 111, "max": 275}, "phone": "+39 041 523 0452", "address": "Sestiere di Castello 5726/A, 30122 Venice Italy", "detailed_address": {"street": "Sestiere di Castello 5726/A", "city": "Venice", "postal_code": "30122", "state": null, "country": "Italy"}, "ranking": {"current_rank": 42, "total": 366}, "featured_image": null, "latitude": 45.437298, "longitude": 12.339322, "amenities": ["Free Wifi", "Breakfast included", "Pets Allowed"], "providers": []}, {"id": 202694, "name": "Splendid Venice - Starhotels Collezione", "link": "https://www.tripadvisor.com/Hotel_Review-g187870-d202694-Reviews-Splendid_Venice_Starhotels_Collezione-Venice_Veneto.html", "reviews": 3637, "rating": 4.5, "price_range_usd": {"min": 209, "max": 400}, "phone": "+39 041 520 0755", "address": "San Marco Mercerie, 760, 30124 Venice Italy", "detailed_address": {"street": "San Marco Mercerie, 760", "city": "Venice", "postal_code": "30124", "state": null, "country": "Italy"}, "ranking": {"current_rank": 93, "total": 366}, "featured_image": null, "latitude": 45.43588, "longitude": 12.337583, "amenities": ["Free Wifi", "Restaurant", "Room service", "Pets Allowed", "Bar/Lounge"], "providers": []}, {"id": 264089, "name": "Hotel Castello", "link": "https://www.tripadvisor.com/Hotel_Review-g187870-d264089-Reviews-Hotel_Castello-Venice_Veneto.html", "reviews": 680, "rating": 3.5, "price_range_usd": {"min": 72, "max": 179}, "phone": "+39 041 523 4545", "address": "Calle del Figher - Castello 4365, 30122 Venice Italy", "detailed_address": {"street": "Calle del Figher - Castello 4365", "city": "Venice", "postal_code": "30122", "state": null, "country": "Italy"}, "ranking": {"current_rank": 226, "total": 366}, "featured_image": null, "latitude": 45.435432, "longitude": 12.341659, "amenities": ["Breakfast included"], "providers": []}, {"id": 283771, "name": "hotel mercurio", "link": "https://www.tripadvisor.com/Hotel_Review-g187870-d283771-Reviews-Hotel_mercurio-Venice_Veneto.html", "reviews": 1279, "rating": 4, "price_range_usd": {"min": 71, "max": 195}, "phone": "+39 041 522 0947", "address": "Calle del Fruttariol San Marco 1848, 30124 Venice Italy", "detailed_address": {"street": "Calle del Fruttariol, San Marco 1848", "city": "Venice", "postal_code": "30124", "state": null, "country": "Italy"}, "ranking": {"current_rank": 116, "total": 366}, "featured_image": null, "latitude": 45.434116, "longitude": 12.334488, "amenities": ["Free Wifi", "Breakfast included"], "providers": []}, {"id": 629161, "name": "Palazzo Cendon", "link": "https://www.tripadvisor.com/Hotel_Review-g187870-d629161-Reviews-Palazzo_Cendon-Venice_Veneto.html", "reviews": 574, "rating": 4, "price_range_usd": {"min": 91, "max": 181}, "phone": "+39 041 275 0606", "address": "Calle Cendon Cannaregio 533-534, 30121 Venice Italy", "detailed_address": {"street": "Calle Cendon Cannaregio 533-534", "city": "Venice", "postal_code": "30121", "state": null, "country": "Italy"}, "ranking": {"current_rank": 71, "total": 479}, "featured_image": null, "latitude": 45.44486, "longitude": 12.322407, "amenities": ["Free Wifi", "Breakfast included"], "providers": []}, {"id": 564782, "name": "Residenza degli Angeli", "link": "https://www.tripadvisor.com/Hotel_Review-g187870-d564782-Reviews-Residenza_degli_Angeli-Venice_Veneto.html", "reviews": 1326, "rating": 4.5, "price_range_usd": {"min": 68, "max": 215}, "phone": "+39 041 275 9546", "address": "Santa Croce 2325 Calle de Ca Bragadin al Cristo, 30123 Venice Italy", "detailed_address": {"street": "Santa Croce 2325, Calle de Ca Bragadin al Cristo", "city": "Venice", "postal_code": "30123", "state": null, "country": "Italy"}, "ranking": {"current_rank": 1, "total": 479}, "featured_image": null, "latitude": 45.43918, "longitude": 12.330915, "amenities": ["Free Wifi"], "providers": []}, {"id": 6771250, "name": "Salute Palace Powered By Sonder", "link": "https://www.tripadvisor.com/Hotel_Review-g187870-d6771250-Reviews-Salute_Palace_Powered_By_Sonder-Venice_Veneto.html", "reviews": 421, "rating": 4.5, "price_range_usd": {"min": 88, "max": 219}, "phone": "1 617 300 0956", "address": "222 Fondamenta Fornace Dorsoduro, 30123 Venice Italy", "detailed_address": {"street": "222 Fondamenta Fornace, Dorsoduro", "city": "Venice", "postal_code": "30123", "state": null, "country": "Italy"}, "ranking": {"current_rank": 50, "total": 479}, "featured_image": null, "latitude": 45.42975, "longitude": 12.332914, "amenities": ["Free Wifi", "Bar/Lounge"], "providers": []}, {"id": 1485037, "name": "Palazzo Paruta & Wellness Apartments", "link": "https://www.tripadvisor.com/Hotel_Review-g187870-d1485037-Reviews-Palazzo_Paruta_Wellness_Apartments-Venice_Veneto.html", "reviews": 1617, "rating": 4.5, "price_range_usd": {"min": 112, "max": 301}, "phone": "+39 041 241 0835", "address": "San Marco 3824, 30124 Venice Italy", "detailed_address": {"street": "San Marco 3824", "city": "Venice", "postal_code": "30124", "state": null, "country": "Italy"}, "ranking": {"current_rank": 56, "total": 366}, "featured_image": null, "latitude": 45.43432, "longitude": 12.331237, "amenities": ["Free Wifi", "Breakfast included", "Bar/Lounge"], "providers": []}, {"id": 1209364, "name": "Palazzo Marcello Hotel Al Sole", "link": "https://www.tripadvisor.com/Hotel_Review-g187870-d1209364-Reviews-Palazzo_Marcello_Hotel_Al_Sole-Venice_Veneto.html", "reviews": 1153, "rating": 4, "price_range_usd": {"min": 161, "max": 254}, "phone": "+39 041 244 0328", "address": "Santa Croce 134-136, 30135 Venice Italy", "detailed_address": {"street": "Santa Croce 134-136", "city": "Venice", "postal_code": "30135", "state": null, "country": "Italy"}, "ranking": {"current_rank": 159, "total": 366}, "featured_image": null, "latitude": 45.436672, "longitude": 12.322576, "amenities": ["Free Wifi", "Breakfast included"], "providers": []}, {"id": 2307401, "name": "Ca dei Polo", "link": "https://www.tripadvisor.com/Hotel_Review-g187870-d2307401-Reviews-Ca_dei_Polo-Venice_Veneto.html", "reviews": 803, "rating": 4.5, "price_range_usd": {"min": 60, "max": 227}, "phone": "+39 041 244 0213", "address": "Santa Croce 203, 30135 Venice Italy", "detailed_address": {"street": "Santa Croce 203", "city": "Venice", "postal_code": "30135", "state": null, "country": "Italy"}, "ranking": {"current_rank": 57, "total": 479}, "featured_image": null, "latitude": 45.438072, "longitude": 12.321667, "amenities": ["Free Wifi"], "providers": []}, {"id": 279286, "name": "Liassidi Palace Hotel", "link": "https://www.tripadvisor.com/Hotel_Review-g187870-d279286-Reviews-Liassidi_Palace_Hotel-Venice_Veneto.html", "reviews": 1311, "rating": 4.5, "price_range_usd": {"min": 91, "max": 253}, "phone": "+39 041 520 5658", "address": "Ponte Dei Greci 3405, 30122 Venice Italy", "detailed_address": {"street": "Ponte Dei Greci 3405", "city": "Venice", "postal_code": "30122", "state": null, "country": "Italy"}, "ranking": {"current_rank": 128, "total": 366}, "featured_image": null, "latitude": 45.435863, "longitude": 12.344544, "amenities": ["Free Wifi", "Breakfast included", "Airport transportation", "Room service", "Bar/Lounge"], "providers": []}, {"id": 229059, "name": "Hotel Concordia", "link": "https://www.tripadvisor.com/Hotel_Review-g187870-d229059-Reviews-Hotel_Concordia-Venice_Veneto.html", "reviews": 1443, "rating": 4.5, "price_range_usd": {"min": 143, "max": 357}, "phone": "+39 041 520 6866", "address": "Calle Larga San Marco 367, 30124 Venice Italy", "detailed_address": {"street": "Calle Larga San Marco 367", "city": "Venice", "postal_code": "30124", "state": null, "country": "Italy"}, "ranking": {"current_rank": 125, "total": 366}, "featured_image": null, "latitude": 45.435116, "longitude": 12.339441, "amenities": ["Free Wifi", "Room service", "Pets Allowed", "Bar/Lounge"], "providers": []}, {"id": 229053, "name": "NH Venezia Santa Lucia", "link": "https://www.tripadvisor.com/Hotel_Review-g187870-d229053-Reviews-NH_Venezia_Santa_Lucia-Venice_Veneto.html", "reviews": 2060, "rating": 4, "price_range_usd": {"min": 140, "max": 277}, "phone": "+39 041 524 2488", "address": "Rio Tera Lista di Spagna, 116/A, 30121 Venice Italy", "detailed_address": {"street": "Rio Tera Lista di Spagna, 116/A", "city": "Venice", "postal_code": "30121", "state": null, "country": "Italy"}, "ranking": {"current_rank": 168, "total": 366}, "featured_image": null, "latitude": 45.441715, "longitude": 12.322614, "amenities": ["Free Wifi", "Breakfast included", "Restaurant", "Room service", "Bar/Lounge"], "providers": []}, {"id": 278272, "name": "Duodo Palace Hotel", "link": "https://www.tripadvisor.com/Hotel_Review-g187870-d278272-Reviews-Duodo_Palace_Hotel-Venice_Veneto.html", "reviews": 1987, "rating": 4.5, "price_range_usd": {"min": 94, "max": 271}, "phone": "+39 041 520 3329", "address": "Calle Minelli 1887/1888 San Marco, 30124 Venice Italy", "detailed_address": {"street": "Calle Minelli 1887/1888, San Marco", "city": "Venice", "postal_code": "30124", "state": null, "country": "Italy"}, "ranking": {"current_rank": 174, "total": 366}, "featured_image": null, "latitude": 45.43444, "longitude": 12.333843, "amenities": ["Free Wifi", "Airport transportation", "Room service", "Bar/Lounge"], "providers": []}, {"id": 10804768, "name": "Palazzo Venart Luxury Hotel", "link": "https://www.tripadvisor.com/Hotel_Review-g187870-d10804768-Reviews-Palazzo_Venart_Luxury_Hotel-Venice_Veneto.html", "reviews": 388, "rating": 5, "price_range_usd": {"min": 546, "max": 973}, "phone": "+39 041 523 3784", "address": "Calle Tron Santa Croce 1961, 30135 Venice Italy", "detailed_address": {"street": "Calle Tron Santa Croce 1961", "city": "Venice", "postal_code": "30135", "state": null, "country": "Italy"}, "ranking": {"current_rank": 21, "total": 366}, "featured_image": null, "latitude": 45.441338, "longitude": 12.329869, "amenities": ["Free Wifi", "Breakfast included", "Restaurant", "Airport transportation", "Room service"], "providers": []}, {"id": 1547281, "name": "Hotel Canal Grande", "link": "https://www.tripadvisor.com/Hotel_Review-g187870-d1547281-Reviews-Hotel_Canal_Grande-Venice_Veneto.html", "reviews": 3293, "rating": 5, "price_range_usd": {"min": 194, "max": 439}, "phone": "+39 041 244 0148", "address": "Campiello S. Simeone Grande, 932, 30135 Venice Italy", "detailed_address": {"street": "Campiello S. Simeone Grande, 932", "city": "Venice", "postal_code": "30135", "state": null, "country": "Italy"}, "ranking": {"current_rank": 14, "total": 366}, "featured_image": null, "latitude": 45.441345, "longitude": 12.323983, "amenities": ["Free Wifi", "Breakfast included", "Airport transportation", "Bar/Lounge"], "providers": []}, {"id": 14117477, "name": "Santa Croce Boutique Hotel", "link": "https://www.tripadvisor.com/Hotel_Review-g187870-d14117477-Reviews-Santa_Croce_Boutique_Hotel-Venice_Veneto.html", "reviews": 346, "rating": 5, "price_range_usd": {"min": 149, "max": 347}, "phone": "+39 041 740112", "address": "Calle Larga Dei Bari Santa Croce 980 Campo Nazario Sauro, 30135 Venice Italy", "detailed_address": {"street": "Calle Larga Dei Bari Santa Croce 980, Campo Nazario Sauro", "city": "Venice", "postal_code": "30135", "state": null, "country": "Italy"}, "ranking": {"current_rank": 15, "total": 366}, "featured_image": null, "latitude": 45.440067, "longitude": 12.325092, "amenities": ["Free Wifi", "Breakfast included", "Airport transportation", "Room service", "Bar/Lounge"], "providers": []}, {"id": 202708, "name": "Hotel Montecarlo", "link": "https://www.tripadvisor.com/Hotel_Review-g187870-d202708-Reviews-Hotel_Montecarlo-Venice_Veneto.html", "reviews": 1929, "rating": 4.5, "price_range_usd": {"min": 101, "max": 233}, "phone": "+39 041 520 7144", "address": "Calle Degli Specchieri 463 San Marco, 30124 Venice Italy", "detailed_address": {"street": "Calle Degli Specchieri 463, San Marco", "city": "Venice", "postal_code": "30124", "state": null, "country": "Italy"}, "ranking": {"current_rank": 108, "total": 366}, "featured_image": null, "latitude": 45.435616, "longitude": 12.339184, "amenities": ["Free Wifi", "Breakfast included", "Restaurant", "Room service", "Pets Allowed"], "providers": []}, {"id": 241742, "name": "Ca'Pisani Hotel", "link": "https://www.tripadvisor.com/Hotel_Review-g187870-d241742-Reviews-Ca_Pisani_Hotel-Venice_Veneto.html", "reviews": 2737, "rating": 5, "price_range_usd": {"min": 204, "max": 430}, "phone": "+39 041 240 1411", "address": "Rio Tera Foscarini 979A Dorsoduro, 30123 Venice Italy", "detailed_address": {"street": "Rio Tera Foscarini 979A, Dorsoduro", "city": "Venice", "postal_code": "30123", "state": null, "country": "Italy"}, "ranking": {"current_rank": 23, "total": 366}, "featured_image": null, "latitude": 45.43054, "longitude": 12.328232, "amenities": ["Free Wifi", "Restaurant", "Airport transportation", "Room service", "Bar/Lounge"], "providers": []}]}, "error": null}