{"data": {"link": "https://www.tripadvisor.com/Hotels-g187870-oa180-Venice_Veneto-Hotels.html", "total_pages": 49, "current_page": 7, "total_items_count": 1467, "items_count": 30, "results": [{"id": 239489, "name": "Tivoli Hotel", "link": "https://www.tripadvisor.com/Hotel_Review-g187870-d239489-Reviews-Tivoli_Hotel-Venice_Veneto.html", "reviews": 413, "rating": 4, "price_range_usd": {"min": 99, "max": 170}, "phone": "+39 041 524 2460", "address": "Sestiere Dorsoduro 3838 Crosera San Pantalon, 30123 Venice Italy", "detailed_address": {"street": "Sestiere Dorsoduro 3838, Crosera San Pantalon", "city": "Venice", "postal_code": "30123", "state": null, "country": "Italy"}, "ranking": {"current_rank": 188, "total": 366}, "featured_image": null, "latitude": 45.43559, "longitude": 12.326049, "amenities": ["Free Wifi", "Breakfast included"], "providers": []}, {"id": 234374, "name": "Hotel Falier", "link": "https://www.tripadvisor.com/Hotel_Review-g187870-d234374-Reviews-Hotel_Falier-Venice_Veneto.html", "reviews": 436, "rating": 4, "price_range_usd": {"min": 80, "max": 204}, "phone": "+39 041 710882", "address": "Salizada San Pantalon Santa Croce 130, 30135 Venice Italy", "detailed_address": {"street": "Salizada San Pantalon Santa Croce 130", "city": "Venice", "postal_code": "30135", "state": null, "country": "Italy"}, "ranking": {"current_rank": 215, "total": 366}, "featured_image": null, "latitude": 45.436874, "longitude": 12.323089, "amenities": ["Free Wifi", "Breakfast included"], "providers": []}, {"id": 202728, "name": "Londra Palace Venezia", "link": "https://www.tripadvisor.com/Hotel_Review-g187870-d202728-Reviews-Londra_Palace_Venezia-Venice_Veneto.html", "reviews": 2092, "rating": 5, "price_range_usd": {"min": 620, "max": 955}, "phone": "+39 041 520 0533", "address": "Riva Degli Schiavoni, 4171, 30122 Venice Italy", "detailed_address": {"street": "Riva Degli Schiavoni, 4171", "city": "Venice", "postal_code": "30122", "state": null, "country": "Italy"}, "ranking": {"current_rank": 30, "total": 366}, "featured_image": null, "latitude": 45.434032, "longitude": 12.343376, "amenities": ["Free Wifi", "Restaurant", "Airport transportation", "Room service", "Pets Allowed"], "providers": []}, {"id": 3454812, "name": "Corte Di Gabriela", "link": "https://www.tripadvisor.com/Hotel_Review-g187870-d3454812-Reviews-Corte_Di_Gabriela-Venice_Veneto.html", "reviews": 1609, "rating": 5, "price_range_usd": {"min": 197, "max": 402}, "phone": "+39 041 523 5077", "address": "Calle Avvocati 3836 S. Marco, 30124 Venice Italy", "detailed_address": {"street": "Calle Avvocati 3836 S. Marco", "city": "Venice", "postal_code": "30124", "state": null, "country": "Italy"}, "ranking": {"current_rank": 13, "total": 366}, "featured_image": null, "latitude": 45.43498, "longitude": 12.331651, "amenities": ["Free Wifi", "Airport transportation", "Bar/Lounge"], "providers": []}, {"id": 644431, "name": "Hotel Al Codega", "link": "https://www.tripadvisor.com/Hotel_Review-g187870-d644431-Reviews-Hotel_Al_Codega-Venice_Veneto.html", "reviews": 1893, "rating": 4.5, "price_range_usd": {"min": 145, "max": 260}, "phone": "+39 041 241 3288", "address": "Corte del Forno Vecchio 4435, 30124 Venice Italy", "detailed_address": {"street": "Corte del Forno Vecchio 4435", "city": "Venice", "postal_code": "30124", "state": null, "country": "Italy"}, "ranking": {"current_rank": 52, "total": 366}, "featured_image": null, "latitude": 45.435585, "longitude": 12.335501, "amenities": ["Free Wifi", "Room service", "Bar/Lounge"], "providers": []}, {"id": 235835, "name": "Hotel Serenissima", "link": "https://www.tripadvisor.com/Hotel_Review-g187870-d235835-Reviews-Hotel_Serenissima-Venice_Veneto.html", "reviews": 821, "rating": 4, "price_range_usd": {"min": 111, "max": 201}, "phone": "+39 041 520 0011", "address": "Calle Goldoni 4486 San Marco, 30124 Venice Italy", "detailed_address": {"street": "Calle Goldoni 4486, San Marco", "city": "Venice", "postal_code": "30124", "state": null, "country": "Italy"}, "ranking": {"current_rank": 138, "total": 366}, "featured_image": null, "latitude": 45.435364, "longitude": 12.335733, "amenities": ["Free Wifi", "Breakfast included"], "providers": []}, {"id": 17522869, "name": "Hotel San Moise", "link": "https://www.tripadvisor.com/Hotel_Review-g187870-d17522869-Reviews-Hotel_San_Moise-Venice_Veneto.html", "reviews": 68, "rating": 3.5, "price_range_usd": {"min": 94, "max": 259}, "phone": "+39 041 520 3755", "address": "San Marco 2058, 30124 Venice Italy", "detailed_address": {"street": "San Marco 2058", "city": "Venice", "postal_code": "30124", "state": null, "country": "Italy"}, "ranking": {"current_rank": 259, "total": 366}, "featured_image": null, "latitude": 45.43326, "longitude": 12.33513, "amenities": ["Free Wifi", "Breakfast included"], "providers": []}, {"id": 239481, "name": "Hotel Guerrini", "link": "https://www.tripadvisor.com/Hotel_Review-g187870-d239481-Reviews-Hotel_Guerrini-Venice_Veneto.html", "reviews": 490, "rating": 3.5, "price_range_usd": {"min": 129, "max": 220}, "phone": "+39 041 715333", "address": "Cannaregio, 265, 30121 Venice Italy", "detailed_address": {"street": "Cannaregio, 265", "city": "Venice", "postal_code": "30121", "state": null, "country": "Italy"}, "ranking": {"current_rank": 210, "total": 366}, "featured_image": null, "latitude": 45.442986, "longitude": 12.324374, "amenities": ["Free Wifi", "Breakfast included"], "providers": []}, {"id": 17385839, "name": "Il Palazzo Experimental", "link": "https://www.tripadvisor.com/Hotel_Review-g187870-d17385839-Reviews-Il_Palazzo_Experimental-Venice_Veneto.html", "reviews": 107, "rating": 4.5, "price_range_usd": {"min": 201, "max": 421}, "phone": "+39 041 098 0200", "address": "Fondamenta Zattere Al Ponte Lungo 1412 Dorsoduro, 30123 Venice Italy", "detailed_address": {"street": "Fondamenta Zattere Al Ponte Lungo 1412, Dorsoduro", "city": "Venice", "postal_code": "30123", "state": null, "country": "Italy"}, "ranking": {"current_rank": 191, "total": 366}, "featured_image": null, "latitude": 45.43041, "longitude": 12.323112, "amenities": ["Free Wifi", "Restaurant", "Room service", "Bar/Lounge"], "providers": []}, {"id": 232950, "name": "Hotel Locanda Vivaldi", "link": "https://www.tripadvisor.com/Hotel_Review-g187870-d232950-Reviews-Hotel_Locanda_Vivaldi-Venice_Veneto.html", "reviews": 1261, "rating": 4.5, "price_range_usd": {"min": 225, "max": 493}, "phone": "+39 041 277 0477", "address": "Riva Dei Schiavoni Castello 4150/52, 30122 Venice Italy", "detailed_address": {"street": "Riva Dei Schiavoni Castello 4150/52", "city": "Venice", "postal_code": "30122", "state": null, "country": "Italy"}, "ranking": {"current_rank": 102, "total": 366}, "featured_image": null, "latitude": 45.434097, "longitude": 12.344599, "amenities": ["Free Wifi", "Breakfast included", "Restaurant", "Room service", "Pets Allowed"], "providers": []}, {"id": 1491053, "name": "Ca' Pagan", "link": "https://www.tripadvisor.com/Hotel_Review-g187870-d1491053-Reviews-Ca_Pagan-Venice_Veneto.html", "reviews": 613, "rating": 4.5, "price_range_usd": {"min": 133, "max": 280}, "phone": "+39 041 296 0584", "address": "Sestiere San Marco 3268 Calle de le Carrozze, 30124 Venice Italy", "detailed_address": {"street": "Sestiere San Marco 3268, Calle de le Carrozze", "city": "Venice", "postal_code": "30124", "state": null, "country": "Italy"}, "ranking": {"current_rank": 103, "total": 366}, "featured_image": null, "latitude": 45.433903, "longitude": 12.328626, "amenities": ["Free Wifi", "Breakfast included"], "providers": []}, {"id": 3398579, "name": "Ca' Pedrocchi", "link": "https://www.tripadvisor.com/Hotel_Review-g187870-d3398579-Reviews-Ca_Pedrocchi-Venice_Veneto.html", "reviews": 242, "rating": 4, "price_range_usd": {"min": 64, "max": 129}, "phone": "+39 041 098 8179", "address": "San Marco, 2257, Via XXII Marzo, 30124 Venice Italy", "detailed_address": {"street": "San Marco, 2257, Via XXII Marzo", "city": "Venice", "postal_code": "30124", "state": null, "country": "Italy"}, "ranking": {"current_rank": 169, "total": 479}, "featured_image": null, "latitude": 45.4329, "longitude": 12.334486, "amenities": ["Free Wifi", "Airport transportation"], "providers": []}, {"id": 295630, "name": "Palazzo Guardi", "link": "https://www.tripadvisor.com/Hotel_Review-g187870-d295630-Reviews-Palazzo_Guardi-Venice_Veneto.html", "reviews": 655, "rating": 4, "price_range_usd": {"min": 83, "max": 231}, "phone": "+39 041 296 0725", "address": "Calle Del Pistor, 995 Dorsoduro, 30123 Venice Italy", "detailed_address": {"street": "Calle Del Pistor, 995, Dorsoduro", "city": "Venice", "postal_code": "30123", "state": null, "country": "Italy"}, "ranking": {"current_rank": 105, "total": 479}, "featured_image": null, "latitude": 45.43095, "longitude": 12.326823, "amenities": ["Free Wifi", "Breakfast included"], "providers": []}, {"id": 291696, "name": "Ca' San Polo", "link": "https://www.tripadvisor.com/Hotel_Review-g187870-d291696-Reviews-Ca_San_Polo-Venice_Veneto.html", "reviews": 511, "rating": 4.5, "price_range_usd": {"min": 61, "max": 143}, "phone": "+39 375 783 9048", "address": "Calle de la Malvasia 2696, 30121 Venice Italy", "detailed_address": {"street": "Calle de la Malvasia 2696", "city": "Venice", "postal_code": "30121", "state": null, "country": "Italy"}, "ranking": {"current_rank": 198, "total": 366}, "featured_image": null, "latitude": 45.43673, "longitude": 12.32848, "amenities": ["Free Wifi"], "providers": []}, {"id": 235876, "name": "Locanda Ca' Foscari", "link": "https://www.tripadvisor.com/Hotel_Review-g187870-d235876-Reviews-Locanda_Ca_Foscari-Venice_Veneto.html", "reviews": 127, "rating": 3.5, "price_range_usd": {"min": 49, "max": 97}, "phone": "+39 041 710401", "address": "Calle Marcona / Calle della Frescada 3887 / B, 30123 Venice Italy", "detailed_address": {"street": "Calle Marcona / Calle della Frescada 3887 / B", "city": "Venice", "postal_code": "30123", "state": null, "country": "Italy"}, "ranking": {"current_rank": 280, "total": 479}, "featured_image": null, "latitude": 45.435402, "longitude": 12.3266, "amenities": ["Pets Allowed"], "providers": []}, {"id": 567601, "name": "Hotel Ca'Vendramin Zago", "link": "https://www.tripadvisor.com/Hotel_Review-g187870-d567601-Reviews-Hotel_Ca_Vendramin_Zago-Venice_Veneto.html", "reviews": 110, "rating": 5, "price_range_usd": {"min": 142, "max": 299}, "phone": "+39 041 275 0125", "address": "Fondamenta Vendramin Cannaregio 2400, 30121 Venice Italy", "detailed_address": {"street": "Fondamenta Vendramin Cannaregio 2400", "city": "Venice", "postal_code": "30121", "state": null, "country": "Italy"}, "ranking": {"current_rank": 74, "total": 366}, "featured_image": null, "latitude": 45.443024, "longitude": 12.332822, "amenities": ["Free Wifi", "Breakfast included", "Room service", "Pets Allowed", "Bar/Lounge"], "providers": []}, {"id": 202710, "name": "Hotel Ateneo", "link": "https://www.tripadvisor.com/Hotel_Review-g187870-d202710-Reviews-Hotel_Ateneo-Venice_Veneto.html", "reviews": 482, "rating": 3.5, "price_range_usd": {"min": 87, "max": 246}, "phone": "+39 041 520 0777", "address": "Sestiere San Marco 1876, 30124 Venice Italy", "detailed_address": {"street": "Sestiere San Marco 1876", "city": "Venice", "postal_code": "30124", "state": null, "country": "Italy"}, "ranking": {"current_rank": 232, "total": 366}, "featured_image": null, "latitude": 45.434357, "longitude": 12.334203, "amenities": ["Free Wifi", "Breakfast included"], "providers": []}, {"id": 235846, "name": "Hotel Belle Arti", "link": "https://www.tripadvisor.com/Hotel_Review-g187870-d235846-Reviews-Hotel_Belle_Arti-Venice_Veneto.html", "reviews": 1182, "rating": 3, "price_range_usd": {"min": 84, "max": 172}, "phone": "+39 041 522 6230", "address": "Rio Terra Foscarini, 912/A Dorsoduro, 30123 Venice Italy", "detailed_address": {"street": "Rio Terra Foscarini, 912/A, Dorsoduro", "city": "Venice", "postal_code": "30123", "state": null, "country": "Italy"}, "ranking": {"current_rank": 291, "total": 366}, "featured_image": null, "latitude": 45.43023, "longitude": 12.32786, "amenities": ["Free Wifi", "Bar/Lounge"], "providers": []}, {"id": 231304, "name": "Hotel Al Graspo de Ua", "link": "https://www.tripadvisor.com/Hotel_Review-g187870-d231304-Reviews-Hotel_Al_Graspo_de_Ua-Venice_Veneto.html", "reviews": 750, "rating": 3, "price_range_usd": {"min": 101, "max": 196}, "phone": "+39 041 520 5644", "address": "Sestiere San Marco 5094/A, 30124 Venice Italy", "detailed_address": {"street": "Sestiere San Marco 5094/A", "city": "Venice", "postal_code": "30124", "state": null, "country": "Italy"}, "ranking": {"current_rank": 317, "total": 366}, "featured_image": null, "latitude": 45.43743, "longitude": 12.336261, "amenities": ["Breakfast included", "Restaurant"], "providers": []}, {"id": 12269055, "name": "GKK Exclusive Private Suites Venezia", "link": "https://www.tripadvisor.com/Hotel_Review-g187870-d12269055-Reviews-GKK_Exclusive_Private_Suites_Venezia-Venice_Veneto.html", "reviews": 44, "rating": 4, "price_range_usd": {"min": 105, "max": 251}, "phone": "+39 041 241 1227", "address": "Sestiere San Polo 1451, 30125 Venice Italy", "detailed_address": {"street": "Sestiere San Polo 1451", "city": "Venice", "postal_code": "30125", "state": null, "country": "Italy"}, "ranking": {"current_rank": 248, "total": 479}, "featured_image": null, "latitude": 45.43695, "longitude": 12.331193, "amenities": ["Free Wifi", "Breakfast included", "Airport transportation", "Room service", "Bar/Lounge"], "providers": []}, {"id": 6703145, "name": "Corte Barozzi Venice Suites", "link": "https://www.tripadvisor.com/Hotel_Review-g187870-d6703145-Reviews-Corte_Barozzi_Venice_Suites-Venice_Veneto.html", "reviews": 291, "rating": 4.5, "price_range_usd": {"min": 121, "max": 268}, "phone": "+39 041 458 3769", "address": "Corte Barozzi San Marco 2155, 30124 Venice Italy", "detailed_address": {"street": "Corte Barozzi San Marco 2155", "city": "Venice", "postal_code": "30124", "state": null, "country": "Italy"}, "ranking": {"current_rank": 8, "total": 340}, "featured_image": null, "latitude": 45.432495, "longitude": 12.335707, "amenities": ["Free Wifi"], "providers": []}, {"id": 285349, "name": "Ca'del Campo 511", "link": "https://www.tripadvisor.com/Hotel_Review-g187870-d285349-Reviews-Ca_del_Campo_511-Venice_Veneto.html", "reviews": 697, "rating": 4.5, "price_range_usd": {"min": 80, "max": 226}, "phone": "+39 041 241 1660", "address": "Calle al Ponte de la Guerra, 511, 30124 Venice Italy", "detailed_address": {"street": "Calle al Ponte de la Guerra, 511", "city": "Venice", "postal_code": "30124", "state": null, "country": "Italy"}, "ranking": {"current_rank": 139, "total": 366}, "featured_image": null, "latitude": 45.43607, "longitude": 12.339156, "amenities": ["Free Wifi"], "providers": []}, {"id": 543076, "name": "Foresteria Levi", "link": "https://www.tripadvisor.com/Hotel_Review-g187870-d543076-Reviews-Foresteria_Levi-Venice_Veneto.html", "reviews": 528, "rating": 4, "price_range_usd": {"min": 94, "max": 259}, "phone": "+39 041 277 0542", "address": "Sestiere San Marco 2893, 30124 Venice Italy", "detailed_address": {"street": "Sestiere San Marco 2893", "city": "Venice", "postal_code": "30124", "state": null, "country": "Italy"}, "ranking": {"current_rank": 110, "total": 479}, "featured_image": null, "latitude": 45.432457, "longitude": 12.328778, "amenities": ["Free Wifi", "Breakfast included"], "providers": []}, {"id": 12850389, "name": "Al Theatro Palace", "link": "https://www.tripadvisor.com/Hotel_Review-g187870-d12850389-Reviews-Al_Theatro_Palace-Venice_Veneto.html", "reviews": 226, "rating": 4.5, "price_range_usd": {"min": 165, "max": 378}, "phone": "+39 041 098 6073", "address": "Campiello Marinoni o de la Fenice 1925, 30124 Venice Italy", "detailed_address": {"street": "Campiello Marinoni o de la Fenice 1925", "city": "Venice", "postal_code": "30124", "state": null, "country": "Italy"}, "ranking": {"current_rank": 124, "total": 366}, "featured_image": null, "latitude": 45.43401, "longitude": 12.333716, "amenities": ["Free Wifi", "Breakfast included"], "providers": []}, {"id": 2687238, "name": "Al Redentore di Venezia Apartments", "link": "https://www.tripadvisor.com/Hotel_Review-g187870-d2687238-Reviews-Al_Redentore_di_Venezia_Apartments-Venice_Veneto.html", "reviews": 260, "rating": 5, "price_range_usd": {"min": 135, "max": 265}, "phone": "+39 041 522 9402", "address": "Fondamenta del Ponte Longo Giudecca 234/A, 30133 Venice Italy", "detailed_address": {"street": "Fondamenta del Ponte Longo Giudecca 234/A", "city": "Venice", "postal_code": "30133", "state": null, "country": "Italy"}, "ranking": {"current_rank": 4, "total": 340}, "featured_image": null, "latitude": 45.42565, "longitude": 12.329224, "amenities": ["Free Wifi"], "providers": []}, {"id": 15189852, "name": "Ca' de la Fonte", "link": "https://www.tripadvisor.com/Hotel_Review-g187870-d15189852-Reviews-Ca_de_la_Fonte-Venice_Veneto.html", "reviews": 43, "rating": 4.5, "price_range_usd": {"min": 82, "max": 204}, "phone": null, "address": "Calle Del Forno 4749, 30121 Venice Italy", "detailed_address": {"street": "Calle Del Forno 4749", "city": "Venice", "postal_code": "30121", "state": null, "country": "Italy"}, "ranking": {"current_rank": 31, "total": 340}, "featured_image": null, "latitude": 45.441425, "longitude": 12.338533, "amenities": ["Free Wifi", "Bar/Lounge"], "providers": []}, {"id": 628667, "name": "Hotel Bella Venezia", "link": "https://www.tripadvisor.com/Hotel_Review-g187870-d628667-Reviews-Hotel_Bella_Venezia-Venice_Veneto.html", "reviews": 682, "rating": 4, "price_range_usd": {"min": 113, "max": 294}, "phone": "+39 041 894 3268", "address": "Calle Dei Fabbri San Marco 4710, 30124 Venice Italy", "detailed_address": {"street": "Calle Dei Fabbri San Marco 4710", "city": "Venice", "postal_code": "30124", "state": null, "country": "Italy"}, "ranking": {"current_rank": 192, "total": 366}, "featured_image": null, "latitude": 45.435818, "longitude": 12.336117, "amenities": ["Free Wifi", "Breakfast included", "Airport transportation", "Room service", "Bar/Lounge"], "providers": []}, {"id": 16745166, "name": "Granda Sweet Suites", "link": "https://www.tripadvisor.com/Hotel_Review-g187870-d16745166-Reviews-Granda_Sweet_Suites-Venice_Veneto.html", "reviews": 71, "rating": 3.5, "price_range_usd": {"min": 70, "max": 170}, "phone": "+39 041 203 1682", "address": "Sestiere San Marco 3201, 30124 Venice Italy", "detailed_address": {"street": "Sestiere San Marco 3201", "city": "Venice", "postal_code": "30124", "state": null, "country": "Italy"}, "ranking": {"current_rank": 191, "total": 340}, "featured_image": null, "latitude": 45.433163, "longitude": 12.327639, "amenities": [], "providers": []}, {"id": 235891, "name": "Palazzo del Giglio", "link": "https://www.tripadvisor.com/Hotel_Review-g187870-d235891-Reviews-Palazzo_del_Giglio-Venice_Veneto.html", "reviews": 439, "rating": 4.5, "price_range_usd": {"min": 146, "max": 359}, "phone": "+39 041 271 9111", "address": "Sestiere San Marco 2462 Campo Santa Maria del Giglio, 30124 Venice Italy", "detailed_address": {"street": "Sestiere San Marco 2462, Campo Santa Maria del Giglio", "city": "Venice", "postal_code": "30124", "state": null, "country": "Italy"}, "ranking": {"current_rank": 75, "total": 366}, "featured_image": null, "latitude": 45.43242, "longitude": 12.333144, "amenities": ["Free Wifi", "Breakfast included", "Room service"], "providers": []}, {"id": 571474, "name": "Ca' San Rocco", "link": "https://www.tripadvisor.com/Hotel_Review-g187870-d571474-Reviews-Ca_San_Rocco-Venice_Veneto.html", "reviews": 348, "rating": 4.5, "price_range_usd": {"min": 153, "max": 258}, "phone": "+39 041 716744", "address": "San Polo 3078 Ramo Cimesin, 30125 Venice Italy", "detailed_address": {"street": "San Polo 3078, Ramo Cimesin", "city": "Venice", "postal_code": "30125", "state": null, "country": "Italy"}, "ranking": {"current_rank": 51, "total": 479}, "featured_image": null, "latitude": 45.437363, "longitude": 12.323812, "amenities": ["Free Wifi", "Breakfast included"], "providers": []}]}, "error": null}