{"data": {"link": "https://www.tripadvisor.com/Hotels-g187871-oa150-Verona_Province_of_Verona_Veneto-Hotels.html", "total_pages": 38, "current_page": 6, "total_items_count": 1111, "items_count": 30, "results": [{"id": 2621804, "name": "Ai Giardini ROOMS", "link": "https://www.tripadvisor.com/Hotel_Review-g187871-d2621804-Reviews-Ai_Giardini_ROOMS-Verona_Province_of_Verona_Veneto.html", "reviews": 322, "rating": 5, "price_range_usd": {"min": 96, "max": 138}, "phone": "+39 334 125 1195", "address": "Via Ciro Menotti 30, 37126, Verona Italy", "detailed_address": {"street": "Via Ciro Menotti 30", "city": null, "postal_code": "37126", "state": null, "country": "Italy"}, "ranking": {"current_rank": 11, "total": 466}, "featured_image": null, "latitude": 45.448597, "longitude": 10.987894, "amenities": ["Free Wifi"], "providers": []}, {"id": 6415422, "name": "Il Tenore B&B", "link": "https://www.tripadvisor.com/Hotel_Review-g187871-d6415422-Reviews-Il_Tenore_B_B-Verona_Province_of_Verona_Veneto.html", "reviews": 96, "rating": 4.5, "price_range_usd": {"min": 95, "max": 145}, "phone": "+39 329 834 1423", "address": "Via Valerio Catullo 12, 37121, Verona Italy", "detailed_address": {"street": "Via Valerio Catullo 12", "city": null, "postal_code": "37121", "state": null, "country": "Italy"}, "ranking": {"current_rank": 90, "total": 466}, "featured_image": null, "latitude": 45.441666, "longitude": 10.994534, "amenities": ["Free Wifi", "Breakfast included", "Pets Allowed", "Bar/Lounge"], "providers": []}, {"id": 10731550, "name": "Piano Tre", "link": "https://www.tripadvisor.com/Hotel_Review-g187871-d10731550-Reviews-Piano_Tre-Verona_Province_of_Verona_Veneto.html", "reviews": 121, "rating": 4.5, "price_range_usd": {"min": 78, "max": 119}, "phone": "+39 339 392 2653", "address": "Via Scrimiari 52, 37129, Verona Italy", "detailed_address": {"street": "Via Scrimiari 52", "city": null, "postal_code": "37129", "state": null, "country": "Italy"}, "ranking": {"current_rank": 49, "total": 466}, "featured_image": null, "latitude": 45.441826, "longitude": 11.004149, "amenities": ["Free Wifi", "Airport transportation"], "providers": []}, {"id": 4781859, "name": "Casa Fola", "link": "https://www.tripadvisor.com/Hotel_Review-g187871-d4781859-Reviews-Casa_Fola-Verona_Province_of_Verona_Veneto.html", "reviews": 165, "rating": 4.5, "price_range_usd": {"min": 89, "max": 151}, "phone": "+39 340 582 0701", "address": "Vicolo Pietrone 8, 37123, Verona Italy", "detailed_address": {"street": "Vicolo Pietrone 8", "city": null, "postal_code": "37123", "state": null, "country": "Italy"}, "ranking": {"current_rank": 32, "total": 466}, "featured_image": null, "latitude": 45.43912, "longitude": 10.98586, "amenities": ["Free Wifi"], "providers": []}, {"id": 15287381, "name": "Nicole Doney Locazione turistica", "link": "https://www.tripadvisor.com/Hotel_Review-g187871-d15287381-Reviews-Nicole_Doney_Locazione_turistica-Verona_Province_of_Verona_Veneto.html", "reviews": 108, "rating": 5, "price_range_usd": {"min": 110, "max": 139}, "phone": "+39 349 391 4811", "address": "Via Ruberio 23/b, 37132, Verona Italy", "detailed_address": {"street": "Via Ruberio 23/b", "city": null, "postal_code": "37132", "state": null, "country": "Italy"}, "ranking": {"current_rank": 6, "total": 344}, "featured_image": null, "latitude": 45.4314, "longitude": 11.04668, "amenities": [], "providers": []}, {"id": 3578978, "name": "La Corte Di Giulietta Exclusive Suites", "link": "https://www.tripadvisor.com/Hotel_Review-g187871-d3578978-Reviews-La_Corte_Di_Giulietta_Exclusive_Suites-Verona_Province_of_Verona_Veneto.html", "reviews": 76, "rating": 5, "price_range_usd": {"min": 224, "max": 352}, "phone": "+39 045 800 0327", "address": "Via Cappello 23 Inside Juliet's Courtyard, 37121, Verona Italy", "detailed_address": {"street": "Via Cappello 23, Inside Juliet's Courtyard", "city": null, "postal_code": "37121", "state": null, "country": "Italy"}, "ranking": {"current_rank": 28, "total": 344}, "featured_image": null, "latitude": 45.442062, "longitude": 10.998514, "amenities": ["Free Wifi", "Breakfast included", "Airport transportation", "Pets Allowed"], "providers": []}, {"id": 12376925, "name": "Fondaco Medievale", "link": "https://www.tripadvisor.com/Hotel_Review-g187871-d12376925-Reviews-Fondaco_Medievale-Verona_Province_of_Verona_Veneto.html", "reviews": 21, "rating": 3, "price_range_usd": {"min": 51, "max": 131}, "phone": "+39 329 801 0137", "address": "Vicolo Cieco Fondachetto 5, 37129, Verona Italy", "detailed_address": {"street": "Vicolo Cieco Fondachetto 5", "city": null, "postal_code": "37129", "state": null, "country": "Italy"}, "ranking": {"current_rank": 315, "total": 344}, "featured_image": null, "latitude": 45.45013, "longitude": 10.99998, "amenities": ["Free Wifi", "Pets Allowed"], "providers": []}, {"id": 1802107, "name": "Agriturismo il Porcellino", "link": "https://www.tripadvisor.com/Hotel_Review-g187871-d1802107-Reviews-Agriturismo_il_Porcellino-Verona_Province_of_Verona_Veneto.html", "reviews": 134, "rating": 4.5, "price_range_usd": {"min": 70, "max": 107}, "phone": "+39 349 446 3505", "address": "Via San Vincenzo 7, 37142, Verona Italy", "detailed_address": {"street": "Via San Vincenzo 7", "city": null, "postal_code": "37142", "state": null, "country": "Italy"}, "ranking": {"current_rank": 46, "total": 344}, "featured_image": null, "latitude": 45.496395, "longitude": 11.002566, "amenities": ["Free Wifi", "Free parking", "Restaurant", "Pets Allowed"], "providers": []}, {"id": 1885300, "name": "Residence Verona Class", "link": "https://www.tripadvisor.com/Hotel_Review-g187871-d1885300-Reviews-Residence_Verona_Class-Verona_Province_of_Verona_Veneto.html", "reviews": 90, "rating": 4, "price_range_usd": {"min": 90, "max": 115}, "phone": "+39 320 373 0424", "address": "Via Centro 23, 37135, Verona Italy", "detailed_address": {"street": "Via Centro 23", "city": null, "postal_code": "37135", "state": null, "country": "Italy"}, "ranking": {"current_rank": 69, "total": 344}, "featured_image": null, "latitude": 45.413055, "longitude": 10.98931, "amenities": ["Free Wifi", "Free parking", "Pets Allowed"], "providers": []}, {"id": 15347847, "name": "Alla Riva", "link": "https://www.tripadvisor.com/Hotel_Review-g187871-d15347847-Reviews-Alla_Riva-Verona_Province_of_Verona_Veneto.html", "reviews": 72, "rating": 5, "price_range_usd": {"min": 152, "max": 171}, "phone": "+39 345 174 6617", "address": "Lungadige Attiraglio 1, 37124, Verona Italy", "detailed_address": {"street": "Lungadige Attiraglio 1", "city": null, "postal_code": "37124", "state": null, "country": "Italy"}, "ranking": {"current_rank": 11, "total": 344}, "featured_image": null, "latitude": 45.453518, "longitude": 10.979917, "amenities": ["Free Wifi", "Free parking", "Breakfast included", "Airport transportation"], "providers": []}, {"id": 12399531, "name": "Aurelia Rooms", "link": "https://www.tripadvisor.com/Hotel_Review-g187871-d12399531-Reviews-Aurelia_Rooms-Verona_Province_of_Verona_Veneto.html", "reviews": 57, "rating": 4, "price_range_usd": {"min": 71, "max": 103}, "phone": "+39 342 974 6847", "address": "Corso Porta Nuova 60, 37122, Verona Italy", "detailed_address": {"street": "Corso Porta Nuova 60", "city": null, "postal_code": "37122", "state": null, "country": "Italy"}, "ranking": {"current_rank": 195, "total": 466}, "featured_image": null, "latitude": 45.43385, "longitude": 10.989, "amenities": ["Free Wifi", "Pets Allowed"], "providers": []}, {"id": 2547904, "name": "B&B Maricla", "link": "https://www.tripadvisor.com/Hotel_Review-g187871-d2547904-Reviews-B_B_Maricla-Verona_Province_of_Verona_Veneto.html", "reviews": 77, "rating": 4.5, "price_range_usd": {"min": 84, "max": 92}, "phone": "+39 388 855 7359", "address": "Via Sansovino 8, 37138, Verona Italy", "detailed_address": {"street": "Via Sansovino 8", "city": null, "postal_code": "37138", "state": null, "country": "Italy"}, "ranking": {"current_rank": 97, "total": 466}, "featured_image": null, "latitude": 45.43723, "longitude": 10.97355, "amenities": ["Free Wifi", "Free parking", "Breakfast included", "Airport transportation", "Pets Allowed"], "providers": []}, {"id": 8000818, "name": "Guesthouse Verona", "link": "https://www.tripadvisor.com/Hotel_Review-g187871-d8000818-Reviews-Guesthouse_Verona-Verona_Province_of_Verona_Veneto.html", "reviews": 106, "rating": 4.5, "price_range_usd": {"min": 89, "max": 103}, "phone": "+39 045 569400", "address": "Via Giulio Camuzzoni 2 Reception Hotel Martini - Open 24 Hours, 37138, Verona Italy", "detailed_address": {"street": "Via Giulio Camuzzoni 2, Reception Hotel Martini - Open 24 Hours", "city": null, "postal_code": "37138", "state": null, "country": "Italy"}, "ranking": {"current_rank": 63, "total": 466}, "featured_image": null, "latitude": 45.432713, "longitude": 10.978692, "amenities": ["Free Wifi", "Breakfast included", "Fitness center"], "providers": []}, {"id": 21313139, "name": "Agricampeggio Oro Verde", "link": "https://www.tripadvisor.com/Hotel_Review-g187871-d21313139-Reviews-Agricampeggio_Oro_Verde-Verona_Province_of_Verona_Veneto.html", "reviews": 5, "rating": 3.5, "price_range_usd": {"min": 42, "max": 42}, "phone": "+39 340 256 7896", "address": "Via San Michele 3, 37141, Verona Italy", "detailed_address": {"street": "Via San Michele 3", "city": null, "postal_code": "37141", "state": null, "country": "Italy"}, "ranking": {"current_rank": 211, "total": 344}, "featured_image": null, "latitude": 45.44695, "longitude": 11.046566, "amenities": ["Pets Allowed"], "providers": []}, {"id": 15023448, "name": "Mastino Rooms", "link": "https://www.tripadvisor.com/Hotel_Review-g187871-d15023448-Reviews-Mastino_Rooms-Verona_Province_of_Verona_Veneto.html", "reviews": 23, "rating": 3, "price_range_usd": {"min": 98, "max": 130}, "phone": null, "address": "Vicolo Ghiaia 5, 37122, Verona Italy", "detailed_address": {"street": "Vicolo Ghiaia 5", "city": null, "postal_code": "37122", "state": null, "country": "Italy"}, "ranking": {"current_rank": 431, "total": 466}, "featured_image": null, "latitude": 45.43731, "longitude": 10.99166, "amenities": ["Free Wifi"], "providers": []}, {"id": 5978752, "name": "La Bella Verona Ugolini", "link": "https://www.tripadvisor.com/Hotel_Review-g187871-d5978752-Reviews-La_Bella_Verona_Ugolini-Verona_Province_of_Verona_Veneto.html", "reviews": 122, "rating": 5, "price_range_usd": {"min": 146, "max": 590}, "phone": "+39 345 822 1130", "address": "Via Generale Armando Diaz 10, 37121, Verona Italy", "detailed_address": {"street": "Via Generale Armando Diaz 10", "city": null, "postal_code": "37121", "state": null, "country": "Italy"}, "ranking": {"current_rank": 48, "total": 466}, "featured_image": null, "latitude": 45.44232, "longitude": 10.992797, "amenities": ["Free Wifi", "Breakfast included"], "providers": []}, {"id": 12934258, "name": "Residenza Navona", "link": "https://www.tripadvisor.com/Hotel_Review-g187871-d12934258-Reviews-Residenza_Navona-Verona_Province_of_Verona_Veneto.html", "reviews": 41, "rating": 3.5, "price_range_usd": {"min": 96, "max": 145}, "phone": null, "address": "Piazzetta Navona 6, 37121, Verona Italy", "detailed_address": {"street": "Piazzetta Navona 6", "city": null, "postal_code": "37121", "state": null, "country": "Italy"}, "ranking": {"current_rank": 406, "total": 466}, "featured_image": null, "latitude": 45.4426, "longitude": 10.99845, "amenities": ["Free Wifi", "Airport transportation", "Pets Allowed"], "providers": []}, {"id": 1413178, "name": "Ai Leoni", "link": "https://www.tripadvisor.com/Hotel_Review-g187871-d1413178-Reviews-Ai_Leoni-Verona_Province_of_Verona_Veneto.html", "reviews": 241, "rating": 4, "price_range_usd": {"min": 61, "max": 72}, "phone": "+39 348 474 6880", "address": "Via Venti Settembre 7, 37129, Verona Italy", "detailed_address": {"street": "Via Venti Settembre 7", "city": null, "postal_code": "37129", "state": null, "country": "Italy"}, "ranking": {"current_rank": 107, "total": 466}, "featured_image": null, "latitude": 45.439323, "longitude": 11.004664, "amenities": ["Free Wifi", "Breakfast included"], "providers": []}, {"id": 15359847, "name": "L'Arena Residence", "link": "https://www.tripadvisor.com/Hotel_Review-g187871-d15359847-Reviews-L_Arena_Residence-Verona_Province_of_Verona_Veneto.html", "reviews": 12, "rating": 3.5, "price_range_usd": {"min": 56, "max": 75}, "phone": null, "address": "Via Luigia Poloni 7, 37122, Verona Italy", "detailed_address": {"street": "Via Luigia Poloni 7", "city": null, "postal_code": "37122", "state": null, "country": "Italy"}, "ranking": {"current_rank": 162, "total": 344}, "featured_image": null, "latitude": 45.43541, "longitude": 10.98666, "amenities": [], "providers": []}, {"id": 17581203, "name": "La Nuova Corte Rooms", "link": "https://www.tripadvisor.com/Hotel_Review-g187871-d17581203-Reviews-La_Nuova_Corte_Rooms-Verona_Province_of_Verona_Veneto.html", "reviews": 14, "rating": 4, "price_range_usd": {"min": 72, "max": 101}, "phone": null, "address": "23 Via Sant'Antonio, 37122, Verona Italy", "detailed_address": {"street": "23 Via Sant'Antonio", "city": null, "postal_code": "37122", "state": null, "country": "Italy"}, "ranking": {"current_rank": 118, "total": 344}, "featured_image": null, "latitude": 45.44054, "longitude": 11.02221, "amenities": [], "providers": []}, {"id": 586683, "name": "Al Quadrifoglio Bed and Breakfast - Verona", "link": "https://www.tripadvisor.com/Hotel_Review-g187871-d586683-Reviews-Al_Quadrifoglio_Bed_and_Breakfast_Verona-Verona_Province_of_Verona_Veneto.html", "reviews": 92, "rating": 4.5, "price_range_usd": {"min": 90, "max": 95}, "phone": "+39 338 225 3681", "address": "Via XXIV maggio, 6, 37126, Verona Italy", "detailed_address": {"street": "Via XXIV maggio, 6", "city": null, "postal_code": "37126", "state": null, "country": "Italy"}, "ranking": {"current_rank": 105, "total": 466}, "featured_image": null, "latitude": 45.44907, "longitude": 10.987361, "amenities": ["Free Wifi", "Free parking", "Breakfast included"], "providers": []}, {"id": 12952598, "name": "Ai Ponti Verona", "link": "https://www.tripadvisor.com/Hotel_Review-g187871-d12952598-Reviews-Ai_Ponti_Verona-Verona_Province_of_Verona_Veneto.html", "reviews": 23, "rating": 5, "price_range_usd": {"min": 123, "max": 632}, "phone": null, "address": "Lungadige Giacomo Matteotti 15, 37126, Verona Italy", "detailed_address": {"street": "Lungadige Giacomo Matteotti 15", "city": null, "postal_code": "37126", "state": null, "country": "Italy"}, "ranking": {"current_rank": 65, "total": 344}, "featured_image": null, "latitude": 45.443478, "longitude": 10.990715, "amenities": ["Free Wifi", "Bar/Lounge"], "providers": []}, {"id": 565104, "name": "Hotel Brennero", "link": "https://www.tripadvisor.com/Hotel_Review-g187871-d565104-Reviews-Hotel_Brennero-Verona_Province_of_Verona_Veneto.html", "reviews": 104, "rating": 4, "price_range_usd": {"min": 93, "max": 119}, "phone": "+39 045 941100", "address": "Via del Ponte 4, 37124, Verona Italy", "detailed_address": {"street": "Via del Ponte 4", "city": null, "postal_code": "37124", "state": null, "country": "Italy"}, "ranking": {"current_rank": 56, "total": 87}, "featured_image": null, "latitude": 45.476955, "longitude": 10.946493, "amenities": ["Free Wifi", "Pets Allowed", "Bar/Lounge"], "providers": []}, {"id": 6420349, "name": "B&B Forever", "link": "https://www.tripadvisor.com/Hotel_Review-g187871-d6420349-Reviews-B_B_Forever-Verona_Province_of_Verona_Veneto.html", "reviews": 78, "rating": 4, "price_range_usd": {"min": 74, "max": 108}, "phone": "+39 331 412 9811", "address": "Via Luigia Poloni 17, 37122, Verona Italy", "detailed_address": {"street": "Via Luigia Poloni 17", "city": null, "postal_code": "37122", "state": null, "country": "Italy"}, "ranking": {"current_rank": 224, "total": 466}, "featured_image": null, "latitude": 45.43582, "longitude": 10.98618, "amenities": ["Free Wifi", "Bar/Lounge"], "providers": []}, {"id": 3300967, "name": "Agriturismo Corte Carolina", "link": "https://www.tripadvisor.com/Hotel_Review-g187871-d3300967-Reviews-Agriturismo_Corte_Carolina-Verona_Province_of_Verona_Veneto.html", "reviews": 84, "rating": 5, "price_range_usd": {"min": 110, "max": 140}, "phone": "+39 045 557979", "address": "Ponte Verde 18, 37141, Verona Italy", "detailed_address": {"street": "Ponte Verde 18", "city": null, "postal_code": "37141", "state": null, "country": "Italy"}, "ranking": {"current_rank": 73, "total": 466}, "featured_image": null, "latitude": 45.45855, "longitude": 11.05661, "amenities": ["Free Wifi", "Free parking", "Breakfast included", "Pets Allowed"], "providers": []}, {"id": 16762961, "name": "Hotel Giulietta", "link": "https://www.tripadvisor.com/Hotel_Review-g187871-d16762961-Reviews-Hotel_Giulietta-Verona_Province_of_Verona_Veneto.html", "reviews": 27, "rating": 3.5, "price_range_usd": {"min": 99, "max": 134}, "phone": "+39 045 570 3197", "address": "Via Tombetta 39, 37135, Verona Italy", "detailed_address": {"street": "Via Tombetta 39", "city": null, "postal_code": "37135", "state": null, "country": "Italy"}, "ranking": {"current_rank": 228, "total": 466}, "featured_image": null, "latitude": 45.41747, "longitude": 10.99053, "amenities": ["Free Wifi"], "providers": []}, {"id": 678497, "name": "B&B Villa Beatrice", "link": "https://www.tripadvisor.com/Hotel_Review-g187871-d678497-Reviews-B_B_Villa_Beatrice-Verona_Province_of_Verona_Veneto.html", "reviews": 863, "rating": 5, "price_range_usd": {"min": 626, "max": 831}, "phone": "+39 349 730 0751", "address": "Via Bonuzzo Sant'Anna 18, 37128, Verona Italy", "detailed_address": {"street": "Via Bonuzzo Sant'Anna 18", "city": null, "postal_code": "37128", "state": null, "country": "Italy"}, "ranking": {"current_rank": 5, "total": 466}, "featured_image": null, "latitude": 45.486694, "longitude": 10.999019, "amenities": ["Free Wifi", "Free parking", "Breakfast included", "Pool", "Airport transportation"], "providers": []}, {"id": 12590102, "name": "Residenza Bonifacio", "link": "https://www.tripadvisor.com/Hotel_Review-g187871-d12590102-Reviews-Residenza_Bonifacio-Verona_Province_of_Verona_Veneto.html", "reviews": 30, "rating": 4.5, "price_range_usd": {"min": 101, "max": 226}, "phone": "+39 351 248 3135", "address": "Vicolo Samaritana 14A, 37121, Verona Italy", "detailed_address": {"street": "Vicolo Samaritana 14A", "city": null, "postal_code": "37121", "state": null, "country": "Italy"}, "ranking": {"current_rank": 155, "total": 466}, "featured_image": null, "latitude": 45.441765, "longitude": 10.997927, "amenities": ["Free Wifi", "Airport transportation", "Pets Allowed"], "providers": []}, {"id": 4714838, "name": "B&B Agli Scaligeri", "link": "https://www.tripadvisor.com/Hotel_Review-g187871-d4714838-Reviews-B_B_Agli_Scaligeri-Verona_Province_of_Verona_Veneto.html", "reviews": 397, "rating": 5, "price_range_usd": {"min": null, "max": null}, "phone": "+39 347 476 5089", "address": "Vicolo Ponte Nuovo 2, 37121, Verona Italy", "detailed_address": {"street": "Vicolo Ponte Nuovo 2", "city": null, "postal_code": "37121", "state": null, "country": "Italy"}, "ranking": {"current_rank": 2, "total": 466}, "featured_image": null, "latitude": 45.44355, "longitude": 10.999864, "amenities": ["Free Wifi"], "providers": []}, {"id": 2323526, "name": "B&B Santo Stefano", "link": "https://www.tripadvisor.com/Hotel_Review-g187871-d2323526-Reviews-B_B_Santo_Stefano-Verona_Province_of_Verona_Veneto.html", "reviews": 349, "rating": 5, "price_range_usd": {"min": 102, "max": 166}, "phone": "+39 392 609 8395", "address": "Via Santo Stefano 13, 37129, Verona Italy", "detailed_address": {"street": "Via Santo Stefano 13", "city": null, "postal_code": "37129", "state": null, "country": "Italy"}, "ranking": {"current_rank": 3, "total": 466}, "featured_image": null, "latitude": 45.448536, "longitude": 11.000328, "amenities": ["Free Wifi", "Breakfast included", "Airport transportation", "Room service"], "providers": []}]}, "error": null}