{"data": {"link": "https://www.tripadvisor.com/Hotels-g187870-oa150-Venice_Veneto-Hotels.html", "total_pages": 49, "current_page": 6, "total_items_count": 1467, "items_count": 30, "results": [{"id": 482693, "name": "Ca' Maria Adele", "link": "https://www.tripadvisor.com/Hotel_Review-g187870-d482693-Reviews-Ca_Maria_Adele-Venice_Veneto.html", "reviews": 875, "rating": 5, "price_range_usd": {"min": 344, "max": 575}, "phone": "+39 041 520 3078", "address": "Dorsoduro 111, 30123 Venice Italy", "detailed_address": {"street": "Dorsoduro 111", "city": "Venice", "postal_code": "30123", "state": null, "country": "Italy"}, "ranking": {"current_rank": 22, "total": 366}, "featured_image": null, "latitude": 45.43032, "longitude": 12.33428, "amenities": ["Free Wifi", "Breakfast included", "Airport transportation", "Room service", "Bar/Lounge"], "providers": []}, {"id": 205634, "name": "Hotel San Zulian", "link": "https://www.tripadvisor.com/Hotel_Review-g187870-d205634-Reviews-Hotel_San_Zulian-Venice_Veneto.html", "reviews": 644, "rating": 3.5, "price_range_usd": {"min": 58, "max": 143}, "phone": "+39 041 522 5872", "address": "San Marco 527, 30124 Venice Italy", "detailed_address": {"street": "San Marco 527", "city": "Venice", "postal_code": "30124", "state": null, "country": "Italy"}, "ranking": {"current_rank": 77, "total": 340}, "featured_image": null, "latitude": 45.436016, "longitude": 12.338687, "amenities": ["Free Wifi", "Breakfast included", "Restaurant", "Room service", "Pets Allowed"], "providers": []}, {"id": 19798468, "name": "Ego' Boutique Hotel The Silk Road", "link": "https://www.tripadvisor.com/Hotel_Review-g187870-d19798468-Reviews-Ego_Boutique_Hotel_The_Silk_Road-Venice_Veneto.html", "reviews": 132, "rating": 5, "price_range_usd": {"min": 187, "max": 464}, "phone": "+39 041 639 9882", "address": "Riva del Carbon 4794-4785, 30124 Venice Italy", "detailed_address": {"street": "Riva del Carbon 4794-4785", "city": "Venice", "postal_code": "30124", "state": null, "country": "Italy"}, "ranking": {"current_rank": 25, "total": 366}, "featured_image": null, "latitude": 45.43711, "longitude": 12.335171, "amenities": ["Free Wifi", "Breakfast included", "Airport transportation", "Room service", "Pets Allowed"], "providers": []}, {"id": 202709, "name": "Albergo San Marco", "link": "https://www.tripadvisor.com/Hotel_Review-g187870-d202709-Reviews-Albergo_San_Marco-Venice_Veneto.html", "reviews": 12, "rating": 4, "price_range_usd": {"min": 115, "max": 223}, "phone": "+39 041 520 4277", "address": "Sestiere San Marco 877, 30124 Venice Italy", "detailed_address": {"street": "Sestiere San Marco 877", "city": "Venice", "postal_code": "30124", "state": null, "country": "Italy"}, "ranking": {"current_rank": 283, "total": 366}, "featured_image": null, "latitude": 45.43453, "longitude": 12.337712, "amenities": ["Free Wifi", "Breakfast included", "Restaurant", "Bar/Lounge"], "providers": []}, {"id": 275951, "name": "Hotel Alle Guglie", "link": "https://www.tripadvisor.com/Hotel_Review-g187870-d275951-Reviews-Hotel_Alle_Guglie-Venice_Veneto.html", "reviews": 187, "rating": 4.5, "price_range_usd": {"min": 91, "max": 252}, "phone": "+39 041 717351", "address": "Cannaregio 1523 Ponte delle Guglie, 30121 Venice Italy", "detailed_address": {"street": "Cannaregio 1523, Ponte delle Guglie", "city": "Venice", "postal_code": "30121", "state": null, "country": "Italy"}, "ranking": {"current_rank": 171, "total": 366}, "featured_image": null, "latitude": 45.443573, "longitude": 12.326428, "amenities": ["Free Wifi", "Breakfast included"], "providers": []}, {"id": 305352, "name": "Hotel Foscari Palace", "link": "https://www.tripadvisor.com/Hotel_Review-g15035619-d305352-Reviews-Hotel_Foscari_Palace-Cannaregio_Veneto.html", "reviews": 1480, "rating": 4.5, "price_range_usd": {"min": 112, "max": 307}, "phone": "+39 041 529 7611", "address": "Campo Santa Sofia 4200/1/2, 30131 Venice Italy", "detailed_address": {"street": "Campo Santa Sofia 4200/1/2", "city": "Venice", "postal_code": "30131", "state": null, "country": "Italy"}, "ranking": {"current_rank": 155, "total": 366}, "featured_image": null, "latitude": 45.440495, "longitude": 12.334757, "amenities": ["Free Wifi", "Breakfast included", "Room service", "Pets Allowed", "Bar/Lounge"], "providers": []}, {"id": 575216, "name": "Domus Ciliota", "link": "https://www.tripadvisor.com/Hotel_Review-g187870-d575216-Reviews-Domus_Ciliota-Venice_Veneto.html", "reviews": 497, "rating": 4, "price_range_usd": {"min": 71, "max": 194}, "phone": "+39 041 520 4888", "address": "Calle de Le Muneghe 2976, 30124 Venice Italy", "detailed_address": {"street": "Calle de Le Muneghe 2976", "city": "Venice", "postal_code": "30124", "state": null, "country": "Italy"}, "ranking": {"current_rank": 101, "total": 479}, "featured_image": null, "latitude": 45.43368, "longitude": 12.32986, "amenities": ["Free Wifi", "Breakfast included"], "providers": []}, {"id": 205796, "name": "A La Locanda di Orsaria", "link": "https://www.tripadvisor.com/Hotel_Review-g187870-d205796-Reviews-A_La_Locanda_di_Orsaria-Venice_Veneto.html", "reviews": 970, "rating": 4.5, "price_range_usd": {"min": 144, "max": 232}, "phone": "+39 394 171 5254", "address": "Calle Priuli Dei Cavalletti Cannaregio - Calle Priuli 103, 30121 Venice Italy", "detailed_address": {"street": "Calle Priuli Dei Cavalletti, Cannaregio - Calle Priuli 103", "city": "Venice", "postal_code": "30121", "state": null, "country": "Italy"}, "ranking": {"current_rank": 47, "total": 479}, "featured_image": null, "latitude": 45.442085, "longitude": 12.32187, "amenities": ["Free Wifi", "Breakfast included"], "providers": []}, {"id": 16712010, "name": "Palazzo San Lorenzo", "link": "https://www.tripadvisor.com/Hotel_Review-g187870-d16712010-Reviews-Palazzo_San_Lorenzo-Venice_Veneto.html", "reviews": 110, "rating": 4.5, "price_range_usd": {"min": 112, "max": 307}, "phone": "+39 041 458 3620", "address": "Fondamenta de l'Osmarin, 4981/B Castello, 30122 Venice Italy", "detailed_address": {"street": "Fondamenta de l'Osmarin, 4981/B, Castello", "city": "Venice", "postal_code": "30122", "state": null, "country": "Italy"}, "ranking": {"current_rank": 111, "total": 366}, "featured_image": null, "latitude": 45.43577, "longitude": 12.343683, "amenities": ["Free Wifi", "Breakfast included", "Airport transportation", "Room service", "Pets Allowed"], "providers": []}, {"id": 281941, "name": "San Marco Palace", "link": "https://www.tripadvisor.com/Hotel_Review-g187870-d281941-Reviews-San_Marco_Palace-Venice_Veneto.html", "reviews": 289, "rating": 3.5, "price_range_usd": {"min": 116, "max": 282}, "phone": "+39 041 240 4311", "address": "San Marco 875, 30124 Venice Italy", "detailed_address": {"street": "San Marco 875", "city": "Venice", "postal_code": "30124", "state": null, "country": "Italy"}, "ranking": {"current_rank": 262, "total": 366}, "featured_image": null, "latitude": 45.43459, "longitude": 12.337833, "amenities": ["Free Wifi", "Breakfast included"], "providers": []}, {"id": 489049, "name": "Hotel Belle Epoque", "link": "https://www.tripadvisor.com/Hotel_Review-g187870-d489049-Reviews-Hotel_Belle_Epoque-Venice_Veneto.html", "reviews": 1255, "rating": 3.5, "price_range_usd": {"min": 87, "max": 174}, "phone": "+39 041 244 0004", "address": "Cannaregio 127/128 Lista di Spagna, 30123 Venice Italy", "detailed_address": {"street": "Cannaregio 127/128, Lista di Spagna", "city": "Venice", "postal_code": "30123", "state": null, "country": "Italy"}, "ranking": {"current_rank": 244, "total": 366}, "featured_image": null, "latitude": 45.441883, "longitude": 12.322985, "amenities": ["Free Wifi", "Breakfast included"], "providers": []}, {"id": 1725854, "name": "Aqua Palace Hotel", "link": "https://www.tripadvisor.com/Hotel_Review-g187870-d1725854-Reviews-Aqua_Palace_Hotel-Venice_Veneto.html", "reviews": 2024, "rating": 4.5, "price_range_usd": {"min": 168, "max": 388}, "phone": "+39 041 296 0442", "address": "Calle De La Malvasia 5492, 30122 Venice Italy", "detailed_address": {"street": "Calle De La Malvasia 5492", "city": "Venice", "postal_code": "30122", "state": null, "country": "Italy"}, "ranking": {"current_rank": 19, "total": 366}, "featured_image": null, "latitude": 45.43657, "longitude": 12.338594, "amenities": ["Free Wifi", "Airport transportation", "Room service"], "providers": []}, {"id": 12227145, "name": "40.17 San Marco", "link": "https://www.tripadvisor.com/Hotel_Review-g187870-d12227145-Reviews-40_17_San_Marco-Venice_Veneto.html", "reviews": 86, "rating": 4.5, "price_range_usd": {"min": 72, "max": 195}, "phone": "+39 393 913 4672", "address": "Calle San Paternian San Marco N. 4017/30124 Campo Manin, Boat stop RIALTO, 30124 Venice Italy", "detailed_address": {"street": "Calle San Paternian San Marco N. 4017/30124, Campo Manin, Boat stop RIALTO", "city": "Venice", "postal_code": "30124", "state": null, "country": "Italy"}, "ranking": {"current_rank": 163, "total": 479}, "featured_image": null, "latitude": 45.435207, "longitude": 12.33364, "amenities": ["Free Wifi"], "providers": []}, {"id": 665130, "name": "Casa Caburlotto", "link": "https://www.tripadvisor.com/Hotel_Review-g187870-d665130-Reviews-Casa_Caburlotto-Venice_Veneto.html", "reviews": 317, "rating": 4, "price_range_usd": {"min": 65, "max": 129}, "phone": "+39 041 710877", "address": "F.ta Rizzi - Santa Croce 316, 30135 Venice Italy", "detailed_address": {"street": "F.ta Rizzi - Santa Croce 316", "city": "Venice", "postal_code": "30135", "state": null, "country": "Italy"}, "ranking": {"current_rank": 154, "total": 479}, "featured_image": null, "latitude": 45.43522, "longitude": 12.318551, "amenities": ["Breakfast included"], "providers": []}, {"id": 1161312, "name": "Charming House IQs", "link": "https://www.tripadvisor.com/Hotel_Review-g187870-d1161312-Reviews-Charming_House_IQs-Venice_Veneto.html", "reviews": 429, "rating": 5, "price_range_usd": {"min": 319, "max": 437}, "phone": "+39 041 241 0062", "address": "Castello, 4425, 30122 Venice Italy", "detailed_address": {"street": "Castello, 4425", "city": "Venice", "postal_code": "30122", "state": null, "country": "Italy"}, "ranking": {"current_rank": 35, "total": 366}, "featured_image": null, "latitude": 45.436516, "longitude": 12.340748, "amenities": ["Free Wifi", "Airport transportation"], "providers": []}, {"id": 235842, "name": "Hotel Al Piave", "link": "https://www.tripadvisor.com/Hotel_Review-g187870-d235842-Reviews-Hotel_Al_Piave-Venice_Veneto.html", "reviews": 1153, "rating": 4.5, "price_range_usd": {"min": 174, "max": 291}, "phone": "+39 041 528 5174", "address": "Ruga Giuffa Castello 4838, 30122 Venice Italy", "detailed_address": {"street": "Ruga Giuffa Castello 4838", "city": "Venice", "postal_code": "30122", "state": null, "country": "Italy"}, "ranking": {"current_rank": 66, "total": 366}, "featured_image": null, "latitude": 45.43651, "longitude": 12.341983, "amenities": ["Free Wifi", "Breakfast included"], "providers": []}, {"id": 297029, "name": "Residenza Goldoni", "link": "https://www.tripadvisor.com/Hotel_Review-g187870-d297029-Reviews-Residenza_Goldoni-Venice_Veneto.html", "reviews": 311, "rating": 4, "price_range_usd": {"min": 88, "max": 226}, "phone": "+39 041 241 0086", "address": "Calle Dei Stagneri San Marco 5232/5234, 30124 Venice Italy", "detailed_address": {"street": "Calle Dei Stagneri San Marco 5232/5234", "city": "Venice", "postal_code": "30124", "state": null, "country": "Italy"}, "ranking": {"current_rank": 150, "total": 479}, "featured_image": null, "latitude": 45.437138, "longitude": 12.337096, "amenities": ["Free Wifi", "Breakfast included"], "providers": []}, {"id": 1079204, "name": "Hotel dell'Opera", "link": "https://www.tripadvisor.com/Hotel_Review-g187870-d1079204-Reviews-Hotel_dell_Opera-Venice_Veneto.html", "reviews": 687, "rating": 4.5, "price_range_usd": {"min": 101, "max": 261}, "phone": "+39 041 520 5243", "address": "San Marco 2009, 30124 Venice Italy", "detailed_address": {"street": "San Marco 2009", "city": "Venice", "postal_code": "30124", "state": null, "country": "Italy"}, "ranking": {"current_rank": 123, "total": 366}, "featured_image": null, "latitude": 45.43346, "longitude": 12.334233, "amenities": ["Free Wifi", "Breakfast included", "Pets Allowed"], "providers": []}, {"id": 758313, "name": "Ca' Fontanea", "link": "https://www.tripadvisor.com/Hotel_Review-g187870-d758313-Reviews-Ca_Fontanea-Venice_Veneto.html", "reviews": 343, "rating": 4, "price_range_usd": {"min": 56, "max": 139}, "phone": "+39 041 716648", "address": "Cannaregio 786 Campiello de le Beccarie, 30100 Venice Italy", "detailed_address": {"street": "Cannaregio 786, Campiello de le Beccarie", "city": "Venice", "postal_code": "30100", "state": null, "country": "Italy"}, "ranking": {"current_rank": 214, "total": 366}, "featured_image": null, "latitude": 45.445908, "longitude": 12.318784, "amenities": ["Free Wifi"], "providers": []}, {"id": 237398, "name": "Hotel Canada Venezia", "link": "https://www.tripadvisor.com/Hotel_Review-g187870-d237398-Reviews-Hotel_Canada_Venezia-Venice_Veneto.html", "reviews": 508, "rating": 3.5, "price_range_usd": {"min": 47, "max": 128}, "phone": "39-41-5229912", "address": "Campo Ansolo Castello 5659, 30122 Venice Italy", "detailed_address": {"street": "Campo Ansolo Castello 5659", "city": "Venice", "postal_code": "30122", "state": null, "country": "Italy"}, "ranking": {"current_rank": 279, "total": 366}, "featured_image": null, "latitude": 45.437744, "longitude": 12.3384, "amenities": ["Breakfast included"], "providers": []}, {"id": 286256, "name": "Locanda Ca' Le Vele", "link": "https://www.tripadvisor.com/Hotel_Review-g187870-d286256-Reviews-Locanda_Ca_Le_Vele-Venice_Veneto.html", "reviews": 439, "rating": 4.5, "price_range_usd": {"min": 90, "max": 215}, "phone": "+39 041 241 3960", "address": "Cannaregio 3969, 30121 Venice Italy", "detailed_address": {"street": "Cannaregio 3969", "city": "Venice", "postal_code": "30121", "state": null, "country": "Italy"}, "ranking": {"current_rank": 48, "total": 479}, "featured_image": null, "latitude": 45.441822, "longitude": 12.33537, "amenities": ["Free Wifi", "Breakfast included"], "providers": []}, {"id": 17518666, "name": "Venice Maggior Consiglio", "link": "https://www.tripadvisor.com/Hotel_Review-g187870-d17518666-Reviews-Venice_Maggior_Consiglio-Venice_Veneto.html", "reviews": 125, "rating": 4.5, "price_range_usd": {"min": 116, "max": 245}, "phone": "+39 041 715113", "address": "Calle Priuli dei Cavalletti, 73/74, 30121 Venice Italy", "detailed_address": {"street": "Calle Priuli dei Cavalletti, 73/74", "city": "Venice", "postal_code": "30121", "state": null, "country": "Italy"}, "ranking": {"current_rank": 199, "total": 366}, "featured_image": null, "latitude": 45.442184, "longitude": 12.321483, "amenities": ["Free Wifi"], "providers": []}, {"id": 574534, "name": "Ca' Nigra Lagoon Resort", "link": "https://www.tripadvisor.com/Hotel_Review-g187870-d574534-Reviews-Ca_Nigra_Lagoon_Resort-Venice_Veneto.html", "reviews": 840, "rating": 4.5, "price_range_usd": {"min": 178, "max": 319}, "phone": "+39 041 524 2790", "address": "Santa Croce 927 Campiello San Simeone Grande, 30135 Venice Italy", "detailed_address": {"street": "Santa Croce 927, Campiello San Simeone Grande", "city": "Venice", "postal_code": "30135", "state": null, "country": "Italy"}, "ranking": {"current_rank": 76, "total": 366}, "featured_image": null, "latitude": 45.440918, "longitude": 12.323807, "amenities": ["Free Wifi", "Breakfast included", "Room service", "Pets Allowed"], "providers": []}, {"id": 239474, "name": "Hotel Bel Sito e Berlino", "link": "https://www.tripadvisor.com/Hotel_Review-g187870-d239474-Reviews-Hotel_Bel_Sito_e_Berlino-Venice_Veneto.html", "reviews": 1402, "rating": 4.5, "price_range_usd": {"min": 97, "max": 250}, "phone": "+39 041 522 3365", "address": "San Marco, 2517, 30124 Venice Italy", "detailed_address": {"street": "San Marco, 2517", "city": "Venice", "postal_code": "30124", "state": null, "country": "Italy"}, "ranking": {"current_rank": 48, "total": 366}, "featured_image": null, "latitude": 45.432625, "longitude": 12.333125, "amenities": ["Free Wifi", "Bar/Lounge"], "providers": []}, {"id": 497613, "name": "Locanda ai Bareteri e B&B Allegri", "link": "https://www.tripadvisor.com/Hotel_Review-g187870-d497613-Reviews-Locanda_ai_Bareteri_e_B_B_Allegri-Venice_Veneto.html", "reviews": 971, "rating": 4.5, "price_range_usd": {"min": 79, "max": 195}, "phone": "+39 041 523 2233", "address": "San Marco, 4966, Calle di Mezzo, 30124 Venice Italy", "detailed_address": {"street": "San Marco, 4966, Calle di Mezzo", "city": "Venice", "postal_code": "30124", "state": null, "country": "Italy"}, "ranking": {"current_rank": 25, "total": 479}, "featured_image": null, "latitude": 45.43645, "longitude": 12.337472, "amenities": ["Free Wifi"], "providers": []}, {"id": 239061, "name": "Locanda al Leon", "link": "https://www.tripadvisor.com/Hotel_Review-g187870-d239061-Reviews-Locanda_al_Leon-Venice_Veneto.html", "reviews": 832, "rating": 4.5, "price_range_usd": {"min": 73, "max": 150}, "phone": "+39 041 277 0393", "address": "Dall'Agnola Giuliano Castello, 4270, 30122 Venice Italy", "detailed_address": {"street": "Dall'Agnola Giuliano Castello, 4270", "city": "Venice", "postal_code": "30122", "state": null, "country": "Italy"}, "ranking": {"current_rank": 43, "total": 479}, "featured_image": null, "latitude": 45.435005, "longitude": 12.341479, "amenities": ["Free Wifi", "Breakfast included"], "providers": []}, {"id": 238969, "name": "Violino D'oro Venezia", "link": "https://www.tripadvisor.com/Hotel_Review-g187870-d238969-Reviews-Violino_D_oro_Venezia-Venice_Veneto.html", "reviews": 11, "rating": 5, "price_range_usd": {"min": 560, "max": 865}, "phone": "+39 041 277 0841", "address": "S. Marco, 2091, 30124 Venice Italy", "detailed_address": {"street": "S. Marco, 2091", "city": "Venice", "postal_code": "30124", "state": null, "country": "Italy"}, "ranking": {"current_rank": 250, "total": 366}, "featured_image": null, "latitude": 45.432793, "longitude": 12.335475, "amenities": ["Free Wifi", "Breakfast included"], "providers": []}, {"id": 235855, "name": "Hotel Casa Verardo Residenza d'Epoca", "link": "https://www.tripadvisor.com/Hotel_Review-g187870-d235855-Reviews-Hotel_Casa_Verardo_Residenza_d_Epoca-Venice_Veneto.html", "reviews": 1175, "rating": 4.5, "price_range_usd": {"min": 82, "max": 254}, "phone": "+39 041 528 6138", "address": "Castello 4766, 30122 Venice Italy", "detailed_address": {"street": "Castello 4766", "city": "Venice", "postal_code": "30122", "state": null, "country": "Italy"}, "ranking": {"current_rank": 44, "total": 366}, "featured_image": null, "latitude": 45.436012, "longitude": 12.341977, "amenities": ["Free Wifi", "Breakfast included", "Room service", "Pets Allowed", "Bar/Lounge"], "providers": []}, {"id": 497881, "name": "Hotel Ca' D'Oro", "link": "https://www.tripadvisor.com/Hotel_Review-g187870-d497881-Reviews-Hotel_Ca_D_Oro-Venice_Veneto.html", "reviews": 934, "rating": 4, "price_range_usd": {"min": 115, "max": 284}, "phone": "+39 041 241 1212", "address": "Corte Barbaro, 4604, 30121 Venice Italy", "detailed_address": {"street": "Corte Barbaro, 4604", "city": "Venice", "postal_code": "30121", "state": null, "country": "Italy"}, "ranking": {"current_rank": 134, "total": 366}, "featured_image": null, "latitude": 45.441486, "longitude": 12.336552, "amenities": ["Free Wifi", "Breakfast included"], "providers": []}, {"id": 252565, "name": "Hotel Palazzo Priuli", "link": "https://www.tripadvisor.com/Hotel_Review-g187870-d252565-Reviews-Hotel_Palazzo_Priuli-Venice_Veneto.html", "reviews": 499, "rating": 4, "price_range_usd": {"min": 128, "max": 326}, "phone": "+39 041 277 0834", "address": "Fondamenta De L'osmarin, 4979/B, 30122 Venice Italy", "detailed_address": {"street": "Fondamenta De L'osmarin, 4979/B", "city": "Venice", "postal_code": "30122", "state": null, "country": "Italy"}, "ranking": {"current_rank": 173, "total": 366}, "featured_image": null, "latitude": 45.435726, "longitude": 12.343451, "amenities": ["Free Wifi", "Breakfast included"], "providers": []}]}, "error": null}