{"data": {"link": "https://www.tripadvisor.com/Hotels-g187871-oa30-Verona_Province_of_Verona_Veneto-Hotels.html", "total_pages": 38, "current_page": 2, "total_items_count": 1111, "items_count": 30, "results": [{"id": 202676, "name": "Hotel Giberti", "link": "https://www.tripadvisor.com/Hotel_Review-g187871-d202676-Reviews-Hotel_Giberti-Verona_Province_of_Verona_Veneto.html", "reviews": 875, "rating": 4, "price_range_usd": {"min": 187, "max": 258}, "phone": "+39 045 800 6900", "address": "Via Gian Matteo Giberti, 7, 37122, Verona Italy", "detailed_address": {"street": "Via Gian Matteo Giberti, 7", "city": null, "postal_code": "37122", "state": null, "country": "Italy"}, "ranking": {"current_rank": 14, "total": 87}, "featured_image": null, "latitude": 45.433987, "longitude": 10.986424, "amenities": ["Free Wifi", "Breakfast included", "Room service", "Bar/Lounge"], "providers": []}, {"id": 233907, "name": "Hotel Italia", "link": "https://www.tripadvisor.com/Hotel_Review-g187871-d233907-Reviews-Hotel_Italia-Verona_Province_of_Verona_Veneto.html", "reviews": 492, "rating": 4, "price_range_usd": {"min": 113, "max": 153}, "phone": "+39 045 918088", "address": "Via Goffredo Mameli 58/66, 37126, Verona Italy", "detailed_address": {"street": "Via Goffredo Mameli 58/66", "city": null, "postal_code": "37126", "state": null, "country": "Italy"}, "ranking": {"current_rank": 37, "total": 87}, "featured_image": null, "latitude": 45.451168, "longitude": 10.989918, "amenities": ["Free Wifi", "Restaurant", "Room service", "Pets Allowed", "Bar/Lounge"], "providers": []}, {"id": 237436, "name": "Hotel Verona", "link": "https://www.tripadvisor.com/Hotel_Review-g187871-d237436-Reviews-Hotel_Verona-Verona_Province_of_Verona_Veneto.html", "reviews": 1129, "rating": 4.5, "price_range_usd": {"min": 102, "max": 145}, "phone": "+39 394 559 5944", "address": "Corso Porta Nuova 47-49, 37122, Verona Italy", "detailed_address": {"street": "Corso Porta Nuova 47-49", "city": null, "postal_code": "37122", "state": null, "country": "Italy"}, "ranking": {"current_rank": 26, "total": 87}, "featured_image": null, "latitude": 45.435448, "longitude": 10.990504, "amenities": ["Free Wifi", "Breakfast included", "Pets Allowed"], "providers": []}, {"id": 628136, "name": "Musella Winery & Country Relais", "link": "https://www.tripadvisor.com/Hotel_Review-g187871-d628136-Reviews-Musella_Winery_Country_Relais-Verona_Province_of_Verona_Veneto.html", "reviews": 232, "rating": 4.5, "price_range_usd": {"min": 88, "max": 117}, "phone": "+39 335 729 4627", "address": "Via Ferrazzette 2 San Martino Buon Albergo, 37036, Verona Italy", "detailed_address": {"street": "Via Ferrazzette 2, San Martino Buon Albergo", "city": null, "postal_code": "37036", "state": null, "country": "Italy"}, "ranking": {"current_rank": 24, "total": 466}, "featured_image": null, "latitude": 45.43978, "longitude": 11.081193, "amenities": ["Free Wifi", "Free parking", "Breakfast included", "Pool", "Outdoor pool"], "providers": []}, {"id": 237445, "name": "Hotel Scalzi", "link": "https://www.tripadvisor.com/Hotel_Review-g187871-d237445-Reviews-Hotel_Scalzi-Verona_Province_of_Verona_Veneto.html", "reviews": 785, "rating": 4.5, "price_range_usd": {"min": 91, "max": 146}, "phone": "+39 045 590422", "address": "Via Carmelitani Scalzi 5, 37122, Verona Italy", "detailed_address": {"street": "Via Carmelitani Scalzi 5", "city": null, "postal_code": "37122", "state": null, "country": "Italy"}, "ranking": {"current_rank": 22, "total": 87}, "featured_image": null, "latitude": 45.435356, "longitude": 10.984458, "amenities": ["Free Wifi", "Pets Allowed"], "providers": []}, {"id": 5453525, "name": "B&B La Magia Dei Sogni", "link": "https://www.tripadvisor.com/Hotel_Review-g187871-d5453525-Reviews-B_B_La_Magia_Dei_Sogni-Verona_Province_of_Verona_Veneto.html", "reviews": 322, "rating": 5, "price_range_usd": {"min": 79, "max": 140}, "phone": "+39 329 617 5690", "address": "Via Chioda 192B, 37136, Verona Italy", "detailed_address": {"street": "Via Chioda 192B", "city": null, "postal_code": "37136", "state": null, "country": "Italy"}, "ranking": {"current_rank": 9, "total": 466}, "featured_image": null, "latitude": 45.398243, "longitude": 10.929637, "amenities": ["Free Wifi", "Free parking", "Breakfast included", "Pool", "Pets Allowed"], "providers": []}, {"id": 233923, "name": "Montresor Hotel Palace", "link": "https://www.tripadvisor.com/Hotel_Review-g187871-d233923-Reviews-Montresor_Hotel_Palace-Verona_Province_of_Verona_Veneto.html", "reviews": 1113, "rating": 4, "price_range_usd": {"min": 88, "max": 136}, "phone": "+39 045 575700", "address": "Via Luigi Galvani 19, 37138, Verona Italy", "detailed_address": {"street": "Via Luigi Galvani 19", "city": null, "postal_code": "37138", "state": null, "country": "Italy"}, "ranking": {"current_rank": 28, "total": 87}, "featured_image": null, "latitude": 45.444904, "longitude": 10.968586, "amenities": ["Free Wifi", "Restaurant", "Room service", "Pets Allowed", "Bar/Lounge"], "providers": []}, {"id": 237438, "name": "Hotel Torcolo", "link": "https://www.tripadvisor.com/Hotel_Review-g187871-d237438-Reviews-Hotel_Torcolo-Verona_Province_of_Verona_Veneto.html", "reviews": 670, "rating": 4.5, "price_range_usd": {"min": 92, "max": 136}, "phone": "+39 045 800 7512", "address": "Vicolo Listone 3, 37121, Verona Italy", "detailed_address": {"street": "Vicolo Listone 3", "city": null, "postal_code": "37121", "state": null, "country": "Italy"}, "ranking": {"current_rank": 19, "total": 87}, "featured_image": null, "latitude": 45.4396, "longitude": 10.992194, "amenities": ["Free Wifi", "Pets Allowed"], "providers": []}, {"id": 277415, "name": "Hotel San Pietro", "link": "https://www.tripadvisor.com/Hotel_Review-g187871-d277415-Reviews-Hotel_San_Pietro-Verona_Province_of_Verona_Veneto.html", "reviews": 302, "rating": 4, "price_range_usd": {"min": 121, "max": 156}, "phone": "+39 045 582600", "address": "Via Santa Teresa 1, 37135, Verona Italy", "detailed_address": {"street": "Via Santa Teresa 1", "city": null, "postal_code": "37135", "state": null, "country": "Italy"}, "ranking": {"current_rank": 29, "total": 87}, "featured_image": null, "latitude": 45.421333, "longitude": 10.985104, "amenities": ["Free Wifi", "Free parking", "Breakfast included", "Room service", "Bar/Lounge"], "providers": []}, {"id": 265516, "name": "Hotel Piccolo", "link": "https://www.tripadvisor.com/Hotel_Review-g187871-d265516-Reviews-Hotel_Piccolo-Verona_Province_of_Verona_Veneto.html", "reviews": 903, "rating": 4, "price_range_usd": {"min": 73, "max": 89}, "phone": "+39 045 569400", "address": "Via Giulio Camuzzoni 3/b Reception Hotel Martini - Open 24 Hours, 37138, Verona Italy", "detailed_address": {"street": "Via Giulio Camuzzoni 3/b, Reception Hotel Martini - Open 24 Hours", "city": null, "postal_code": "37138", "state": null, "country": "Italy"}, "ranking": {"current_rank": 36, "total": 87}, "featured_image": null, "latitude": 45.432896, "longitude": 10.978437, "amenities": ["Free Wifi", "Breakfast included", "Restaurant", "Pets Allowed"], "providers": []}, {"id": 1645228, "name": "Hotel Marco Polo", "link": "https://www.tripadvisor.com/Hotel_Review-g187871-d1645228-Reviews-Hotel_Marco_Polo-Verona_Province_of_Verona_Veneto.html", "reviews": 714, "rating": 4, "price_range_usd": {"min": 88, "max": 130}, "phone": "+39 045 801 0885", "address": "Via di Sant'Antonio 21, 37122, Verona Italy", "detailed_address": {"street": "Via di Sant'Antonio 21", "city": null, "postal_code": "37122", "state": null, "country": "Italy"}, "ranking": {"current_rank": 45, "total": 87}, "featured_image": null, "latitude": 45.43715, "longitude": 10.988603, "amenities": ["Breakfast included", "Pets Allowed", "Spa"], "providers": []}, {"id": 1018034, "name": "Hotel Arena", "link": "https://www.tripadvisor.com/Hotel_Review-g187871-d1018034-Reviews-Hotel_Arena-Verona_Province_of_Verona_Veneto.html", "reviews": 276, "rating": 3.5, "price_range_usd": {"min": 61, "max": 90}, "phone": "39 45/8032440", "address": "Stradone Porta Palio 2, 37122, Verona Italy", "detailed_address": {"street": "Stradone Porta Palio 2", "city": null, "postal_code": "37122", "state": null, "country": "Italy"}, "ranking": {"current_rank": 63, "total": 87}, "featured_image": null, "latitude": 45.43897, "longitude": 10.986375, "amenities": ["Free Wifi", "Room service"], "providers": []}, {"id": 233894, "name": "Hotel Martini", "link": "https://www.tripadvisor.com/Hotel_Review-g187871-d233894-Reviews-Hotel_Martini-Verona_Province_of_Verona_Veneto.html", "reviews": 909, "rating": 4, "price_range_usd": {"min": 73, "max": 92}, "phone": "+39 045 569400", "address": "Via Giulio Camuzzoni 2, 37138, Verona Italy", "detailed_address": {"street": "Via Giulio Camuzzoni 2", "city": null, "postal_code": "37138", "state": null, "country": "Italy"}, "ranking": {"current_rank": 27, "total": 87}, "featured_image": null, "latitude": 45.43271, "longitude": 10.978859, "amenities": ["Free Wifi", "Breakfast included", "Room service", "Pets Allowed", "Bar/Lounge"], "providers": []}, {"id": 12727605, "name": "Corte Realdi Suites", "link": "https://www.tripadvisor.com/Hotel_Review-g187871-d12727605-Reviews-Corte_Realdi_Suites-Verona_Province_of_Verona_Veneto.html", "reviews": 187, "rating": 4.5, "price_range_usd": {"min": 145, "max": 259}, "phone": "+39 392 927 6445", "address": "Via Mazzanti 3/a, 37121, Verona Italy", "detailed_address": {"street": "Via Mazzanti 3/a", "city": null, "postal_code": "37121", "state": null, "country": "Italy"}, "ranking": {"current_rank": 31, "total": 466}, "featured_image": null, "latitude": 45.443413, "longitude": 10.997521, "amenities": ["Free Wifi", "Airport transportation", "Pets Allowed"], "providers": []}, {"id": 21164528, "name": "Relais Villa Dei Gelsi & Spa", "link": "https://www.tripadvisor.com/Hotel_Review-g187871-d21164528-Reviews-Relais_Villa_Dei_Gelsi_Spa-Verona_Province_of_Verona_Veneto.html", "reviews": 48, "rating": 5, "price_range_usd": {"min": 229, "max": 425}, "phone": "+39 329 107 7886", "address": "Via Carlo Donati 13, 37128, Verona Italy", "detailed_address": {"street": "Via Carlo Donati 13", "city": null, "postal_code": "37128", "state": null, "country": "Italy"}, "ranking": {"current_rank": 31, "total": 87}, "featured_image": null, "latitude": 45.458984, "longitude": 10.997996, "amenities": ["Free Wifi", "Free parking", "Breakfast included", "Pool", "Indoor pool"], "providers": []}, {"id": 15675708, "name": "StraVagante Hostel", "link": "https://www.tripadvisor.com/Hotel_Review-g187871-d15675708-Reviews-StraVagante_Hostel-Verona_Province_of_Verona_Veneto.html", "reviews": 91, "rating": 4.5, "price_range_usd": {"min": 77, "max": 97}, "phone": "+39 045 554 7968", "address": "Via Gianattilio Dalla Bona 8, 37138, Verona Italy", "detailed_address": {"street": "Via Gianattilio Dalla Bona 8", "city": null, "postal_code": "37138", "state": null, "country": "Italy"}, "ranking": {"current_rank": 32, "total": 344}, "featured_image": null, "latitude": 45.434032, "longitude": 10.978471, "amenities": ["Free Wifi", "Restaurant", "Bar/Lounge"], "providers": []}, {"id": 488048, "name": "Hotel Aurora", "link": "https://www.tripadvisor.com/Hotel_Review-g187871-d488048-Reviews-Hotel_Aurora-Verona_Province_of_Verona_Veneto.html", "reviews": 486, "rating": 4.5, "price_range_usd": {"min": 132, "max": 226}, "phone": "+39 045 594717", "address": "Piazzetta XIV Novembre, 2, 37121, Verona Italy", "detailed_address": {"street": "Piazzetta XIV Novembre, 2", "city": null, "postal_code": "37121", "state": null, "country": "Italy"}, "ranking": {"current_rank": 11, "total": 87}, "featured_image": null, "latitude": 45.44296, "longitude": 10.996777, "amenities": ["Free Wifi", "Pets Allowed"], "providers": []}, {"id": 284545, "name": "Verona House Aparthotel", "link": "https://www.tripadvisor.com/Hotel_Review-g187871-d284545-Reviews-Verona_House_Aparthotel-Verona_Province_of_Verona_Veneto.html", "reviews": 199, "rating": 4.5, "price_range_usd": {"min": 98, "max": 227}, "phone": "+39 045 205 0366", "address": "Stradone Antonio Provolo, 3, 37123, Verona Italy", "detailed_address": {"street": "Stradone Antonio Provolo, 3", "city": null, "postal_code": "37123", "state": null, "country": "Italy"}, "ranking": {"current_rank": 34, "total": 87}, "featured_image": null, "latitude": 45.43937, "longitude": 10.986416, "amenities": ["Free Wifi", "Pets Allowed"], "providers": []}, {"id": 14132546, "name": "Residenza Palazzo Negri", "link": "https://www.tripadvisor.com/Hotel_Review-g187871-d14132546-Reviews-Residenza_Palazzo_Negri-Verona_Province_of_Verona_Veneto.html", "reviews": 79, "rating": 5, "price_range_usd": {"min": 140, "max": 188}, "phone": "+39 348 076 0818", "address": "Vicolo San Matteo 2, 37121, Verona Italy", "detailed_address": {"street": "Vicolo San Matteo 2", "city": null, "postal_code": "37121", "state": null, "country": "Italy"}, "ranking": {"current_rank": 7, "total": 344}, "featured_image": null, "latitude": 45.44191, "longitude": 10.99377, "amenities": ["Free Wifi"], "providers": []}, {"id": 12301186, "name": "Palazzo Monga Boutique Guesthouse", "link": "https://www.tripadvisor.com/Hotel_Review-g187871-d12301186-Reviews-Palazzo_Monga_Boutique_Guesthouse-Verona_Province_of_Verona_Veneto.html", "reviews": 64, "rating": 5, "price_range_usd": {"min": 249, "max": 475}, "phone": "+39 349 757 0079", "address": "Corso Porta Borsari 36, 37121, Verona Italy", "detailed_address": {"street": "Corso Porta Borsari 36", "city": null, "postal_code": "37121", "state": null, "country": "Italy"}, "ranking": {"current_rank": 55, "total": 466}, "featured_image": null, "latitude": 45.442413, "longitude": 10.994329, "amenities": ["Free Wifi", "Fitness center"], "providers": []}, {"id": 4403315, "name": "Relais Fra' Lorenzo", "link": "https://www.tripadvisor.com/Hotel_Review-g187871-d4403315-Reviews-Relais_Fra_Lorenzo-Verona_Province_of_Verona_Veneto.html", "reviews": 257, "rating": 4.5, "price_range_usd": {"min": 155, "max": 10301}, "phone": "+39 045 830 2362", "address": "Via Castello San Felice, 11, 37128, Verona Italy", "detailed_address": {"street": "Via Castello San Felice, 11", "city": null, "postal_code": "37128", "state": null, "country": "Italy"}, "ranking": {"current_rank": 15, "total": 466}, "featured_image": null, "latitude": 45.45483, "longitude": 11.005047, "amenities": ["Free Wifi", "Free parking", "Breakfast included", "Pool", "Outdoor pool"], "providers": []}, {"id": 2064888, "name": "Crowne Plaza Verona - Fiera, an IHG hotel", "link": "https://www.tripadvisor.com/Hotel_Review-g187871-d2064888-Reviews-Crowne_Plaza_Verona_Fiera_an_IHG_hotel-Verona_Province_of_Verona_Veneto.html", "reviews": 1012, "rating": 4, "price_range_usd": {"min": 106, "max": 135}, "phone": "+39 045 493 3333", "address": "Via Belgio 16, 37135, Verona Italy", "detailed_address": {"street": "Via Belgio 16", "city": null, "postal_code": "37135", "state": null, "country": "Italy"}, "ranking": {"current_rank": 38, "total": 87}, "featured_image": null, "latitude": 45.412632, "longitude": 10.970666, "amenities": ["Free Wifi", "Free parking", "Pool", "Heated pool", "Indoor pool"], "providers": []}, {"id": 237439, "name": "Mazzanti", "link": "https://www.tripadvisor.com/Hotel_Review-g187871-d237439-Reviews-Mazzanti-Verona_Province_of_Verona_Veneto.html", "reviews": 555, "rating": 4.5, "price_range_usd": {"min": 111, "max": 182}, "phone": "+39 045 591690", "address": "Via Mazzanti 6, 37121, Verona Italy", "detailed_address": {"street": "Via Mazzanti 6", "city": null, "postal_code": "37121", "state": null, "country": "Italy"}, "ranking": {"current_rank": 2, "total": 87}, "featured_image": null, "latitude": 45.443607, "longitude": 10.997441, "amenities": ["Free Wifi", "Breakfast included"], "providers": []}, {"id": 9788257, "name": "Locanda al Vescovo", "link": "https://www.tripadvisor.com/Hotel_Review-g187871-d9788257-Reviews-Locanda_al_Vescovo-Verona_Province_of_Verona_Veneto.html", "reviews": 137, "rating": 4, "price_range_usd": {"min": 105, "max": 159}, "phone": "+39 045 590890", "address": "Via Venti Settembre 111, 37129, Verona Italy", "detailed_address": {"street": "Via Venti Settembre 111", "city": null, "postal_code": "37129", "state": null, "country": "Italy"}, "ranking": {"current_rank": 88, "total": 466}, "featured_image": null, "latitude": 45.439903, "longitude": 11.013762, "amenities": ["Free Wifi", "Breakfast included", "Indoor pool", "Pool", "Heated pool"], "providers": []}, {"id": 231309, "name": "Hotel Fiera", "link": "https://www.tripadvisor.com/Hotel_Review-g187871-d231309-Reviews-Hotel_Fiera-Verona_Province_of_Verona_Veneto.html", "reviews": 941, "rating": 4, "price_range_usd": {"min": 73, "max": 113}, "phone": "+39 045 820 4485", "address": "Via Ugo Zannoni 26, 37136, Verona Italy", "detailed_address": {"street": "Via Ugo Zannoni 26", "city": null, "postal_code": "37136", "state": null, "country": "Italy"}, "ranking": {"current_rank": 30, "total": 87}, "featured_image": null, "latitude": 45.42171, "longitude": 10.977123, "amenities": ["Free Wifi", "Free parking", "Breakfast included", "Restaurant", "Room service"], "providers": []}, {"id": 16556254, "name": "Camping Verona Village", "link": "https://www.tripadvisor.com/Hotel_Review-g187871-d16556254-Reviews-Camping_Verona_Village-Verona_Province_of_Verona_Veneto.html", "reviews": 65, "rating": 4.5, "price_range_usd": {"min": 62, "max": 83}, "phone": "+39 045 205 0660", "address": "Via Forte Tomba 44, 37135, Verona Italy", "detailed_address": {"street": "Via Forte Tomba 44", "city": null, "postal_code": "37135", "state": null, "country": "Italy"}, "ranking": {"current_rank": 33, "total": 344}, "featured_image": null, "latitude": 45.392498, "longitude": 10.993114, "amenities": ["Free Wifi", "Free parking", "Pets Allowed", "Bar/Lounge"], "providers": []}, {"id": 6864116, "name": "Art&Coffee", "link": "https://www.tripadvisor.com/Hotel_Review-g187871-d6864116-Reviews-Art_Coffee-Verona_Province_of_Verona_Veneto.html", "reviews": 155, "rating": 4.5, "price_range_usd": {"min": 80, "max": 117}, "phone": "+39 348 871 5120", "address": "Vicolo Cieco Agnello 1, 37121, Verona Italy", "detailed_address": {"street": "Vicolo Cieco Agnello 1", "city": null, "postal_code": "37121", "state": null, "country": "Italy"}, "ranking": {"current_rank": 45, "total": 466}, "featured_image": null, "latitude": 45.441376, "longitude": 10.995986, "amenities": ["Free Wifi", "Breakfast included"], "providers": []}, {"id": 4773078, "name": "B&B Verona Centro", "link": "https://www.tripadvisor.com/Hotel_Review-g187871-d4773078-Reviews-B_B_Verona_Centro-Verona_Province_of_Verona_Veneto.html", "reviews": 104, "rating": 4.5, "price_range_usd": {"min": 104, "max": 210}, "phone": "+39 338 301 3468", "address": "Piazza Martiri della Liberta' 4, 37129, Verona Italy", "detailed_address": {"street": "Piazza Martiri della Liberta' 4", "city": null, "postal_code": "37129", "state": null, "country": "Italy"}, "ranking": {"current_rank": 80, "total": 466}, "featured_image": null, "latitude": 45.446888, "longitude": 11.002579, "amenities": ["Free Wifi", "Breakfast included"], "providers": []}, {"id": 16711692, "name": "Hotel San Marco Fitness Pool & Spa", "link": "https://www.tripadvisor.com/Hotel_Review-g187871-d16711692-Reviews-Hotel_San_Marco_Fitness_Pool_Spa-Verona_Province_of_Verona_Veneto.html", "reviews": 97, "rating": 3.5, "price_range_usd": {"min": 83, "max": 174}, "phone": "+39 045 569011", "address": "Via San Marco 11, 37138, Verona Italy", "detailed_address": {"street": "Via San Marco 11", "city": null, "postal_code": "37138", "state": null, "country": "Italy"}, "ranking": {"current_rank": 64, "total": 87}, "featured_image": null, "latitude": 45.44006, "longitude": 10.972244, "amenities": ["Free Wifi", "Pool", "Indoor pool", "Outdoor pool", "Restaurant"], "providers": []}, {"id": 237421, "name": "Euromotel Croce Bianca", "link": "https://www.tripadvisor.com/Hotel_Review-g187871-d237421-Reviews-Euromotel_Croce_Bianca-Verona_Province_of_Verona_Veneto.html", "reviews": 522, "rating": 4, "price_range_usd": {"min": 67, "max": 75}, "phone": "+39 045 890 3890", "address": "Strada Bresciana 2, 37139, Verona Italy", "detailed_address": {"street": "Strada Bresciana 2", "city": null, "postal_code": "37139", "state": null, "country": "Italy"}, "ranking": {"current_rank": 43, "total": 87}, "featured_image": null, "latitude": 45.44694, "longitude": 10.939496, "amenities": ["Free Wifi", "Free parking", "Breakfast included", "Pets Allowed", "Bar/Lounge"], "providers": []}]}, "error": null}