{"data": {"link": "https://www.tripadvisor.com/Hotels-g187871-oa120-Verona_Province_of_Verona_Veneto-Hotels.html", "total_pages": 38, "current_page": 5, "total_items_count": 1111, "items_count": 30, "results": [{"id": 736047, "name": "Resort Corte Pellegrini", "link": "https://www.tripadvisor.com/Hotel_Review-g187871-d736047-Reviews-Resort_Corte_Pellegrini-Verona_Province_of_Verona_Veneto.html", "reviews": 135, "rating": 4.5, "price_range_usd": {"min": 97, "max": 110}, "phone": "+39 335 816 6973", "address": "Via Campalto 18 San Martino Buon Albergo, 37036, Verona Italy", "detailed_address": {"street": "Via Campalto 18, San Martino Buon Albergo", "city": null, "postal_code": "37036", "state": null, "country": "Italy"}, "ranking": {"current_rank": 52, "total": 466}, "featured_image": null, "latitude": 45.397057, "longitude": 11.083683, "amenities": ["Free Wifi", "Free parking", "Breakfast included", "Pool", "Outdoor pool"], "providers": []}, {"id": 1880335, "name": "Agriturismo Il Pianetto", "link": "https://www.tripadvisor.com/Hotel_Review-g187871-d1880335-Reviews-Agriturismo_Il_Pianetto-Verona_Province_of_Verona_Veneto.html", "reviews": 153, "rating": 4.5, "price_range_usd": {"min": 87, "max": 116}, "phone": "+39 340 962 3330", "address": "Viale Dei Colli 49 D, 37128, Verona Italy", "detailed_address": {"street": "Viale Dei Colli 49 D", "city": null, "postal_code": "37128", "state": null, "country": "Italy"}, "ranking": {"current_rank": 35, "total": 344}, "featured_image": null, "latitude": 45.464607, "longitude": 10.993219, "amenities": ["Free Wifi", "Free parking", "Breakfast included", "Pets Allowed"], "providers": []}, {"id": 12405512, "name": "Poker d'Assi B&B", "link": "https://www.tripadvisor.com/Hotel_Review-g187871-d12405512-Reviews-Poker_d_Assi_B_B-Verona_Province_of_Verona_Veneto.html", "reviews": 18, "rating": 4, "price_range_usd": {"min": 57, "max": 73}, "phone": null, "address": "Via Monte Pasubio 1/a, 37126, Verona Italy", "detailed_address": {"street": "Via Monte Pasubio 1/a", "city": null, "postal_code": "37126", "state": null, "country": "Italy"}, "ranking": {"current_rank": 125, "total": 344}, "featured_image": null, "latitude": 45.44548, "longitude": 10.98693, "amenities": ["Free Wifi", "Pets Allowed"], "providers": []}, {"id": 7793940, "name": "B&B Corso Porta Nuova 39", "link": "https://www.tripadvisor.com/Hotel_Review-g187871-d7793940-Reviews-B_B_Corso_Porta_Nuova_39-Verona_Province_of_Verona_Veneto.html", "reviews": 58, "rating": 4, "price_range_usd": {"min": 68, "max": 90}, "phone": "+39 340 256 6061", "address": "Sorso Porto Nuova, 39, 37122, Verona Italy", "detailed_address": {"street": "Sorso Porto Nuova, 39", "city": null, "postal_code": "37122", "state": null, "country": "Italy"}, "ranking": {"current_rank": 175, "total": 466}, "featured_image": null, "latitude": 45.43586, "longitude": 10.99062, "amenities": ["Free Wifi", "Bar/Lounge"], "providers": []}, {"id": 12349541, "name": "Relais Corte Sant' Agata", "link": "https://www.tripadvisor.com/Hotel_Review-g187871-d12349541-Reviews-Relais_Corte_Sant_Agata-Verona_Province_of_Verona_Veneto.html", "reviews": 137, "rating": 5, "price_range_usd": {"min": 90, "max": 111}, "phone": "+39 349 659 8249", "address": "Strada Bresciana 83B, 37139, Verona Italy", "detailed_address": {"street": "Strada Bresciana 83B", "city": null, "postal_code": "37139", "state": null, "country": "Italy"}, "ranking": {"current_rank": 12, "total": 466}, "featured_image": null, "latitude": 45.44582, "longitude": 10.893916, "amenities": ["Free Wifi", "Free parking", "Breakfast included", "Pets Allowed"], "providers": []}, {"id": 6739582, "name": "Arena Suite (NUOVA GESTIONE 2021)", "link": "https://www.tripadvisor.com/Hotel_Review-g187871-d6739582-Reviews-Arena_Suite_NUOVA_GESTIONE_2021-Verona_Province_of_Verona_Veneto.html", "reviews": 101, "rating": 4.5, "price_range_usd": {"min": 111, "max": 175}, "phone": "+39 045 237 0167", "address": "Stradone Porta Palio 36, 37122, Verona Italy", "detailed_address": {"street": "Stradone Porta Palio 36", "city": null, "postal_code": "37122", "state": null, "country": "Italy"}, "ranking": {"current_rank": 60, "total": 466}, "featured_image": null, "latitude": 45.43779, "longitude": 10.985204, "amenities": ["Free Wifi", "Airport transportation", "Pets Allowed"], "providers": []}, {"id": 2313837, "name": "City Centre Rooms and Apartments", "link": "https://www.tripadvisor.com/Hotel_Review-g187871-d2313837-Reviews-City_Centre_Rooms_and_Apartments-Verona_Province_of_Verona_Veneto.html", "reviews": 323, "rating": 4.5, "price_range_usd": {"min": 89, "max": 169}, "phone": "+39 346 963 2739", "address": "Piazza Bra 20/C Verona Historical Centre, 37121, Verona Italy", "detailed_address": {"street": "Piazza Bra 20/C, Verona Historical Centre", "city": null, "postal_code": "37121", "state": null, "country": "Italy"}, "ranking": {"current_rank": 65, "total": 466}, "featured_image": null, "latitude": 45.4387, "longitude": 10.991967, "amenities": ["Free Wifi"], "providers": []}, {"id": 6458620, "name": "Corte Merighi Charming Rooms | Verona", "link": "https://www.tripadvisor.com/Hotel_Review-g187871-d6458620-Reviews-Corte_Merighi_Charming_Rooms_Verona-Verona_Province_of_Verona_Veneto.html", "reviews": 228, "rating": 4.5, "price_range_usd": {"min": 120, "max": 149}, "phone": "+39 391 355 3522", "address": "Via Vittorio Merighi 1A, 37138, Verona Italy", "detailed_address": {"street": "Via Vittorio Merighi 1A", "city": null, "postal_code": "37138", "state": null, "country": "Italy"}, "ranking": {"current_rank": 9, "total": 344}, "featured_image": null, "latitude": 45.434853, "longitude": 10.977594, "amenities": ["Free Wifi"], "providers": []}, {"id": 237430, "name": "Park Hotel Elefante", "link": "https://www.tripadvisor.com/Hotel_Review-g187871-d237430-Reviews-Park_Hotel_Elefante-Verona_Province_of_Verona_Veneto.html", "reviews": 277, "rating": 4.5, "price_range_usd": {"min": 77, "max": 118}, "phone": "+39 045 890 3700", "address": "Strada Bresciana 27, 37139, Verona Italy", "detailed_address": {"street": "Strada Bresciana 27", "city": null, "postal_code": "37139", "state": null, "country": "Italy"}, "ranking": {"current_rank": 40, "total": 87}, "featured_image": null, "latitude": 45.44636, "longitude": 10.927294, "amenities": ["Free Wifi", "Free parking", "Pool", "Outdoor pool", "Restaurant"], "providers": []}, {"id": 6411391, "name": "Locanda Al Confin - Osteria Le Piere", "link": "https://www.tripadvisor.com/Hotel_Review-g187871-d6411391-Reviews-Locanda_Al_Confin_Osteria_Le_Piere-Verona_Province_of_Verona_Veneto.html", "reviews": 238, "rating": 4, "price_range_usd": {"min": 132, "max": 134}, "phone": "+39 045 865 0920", "address": "Via Quercia 8 Localita Pigozzo, 37141, Verona Italy", "detailed_address": {"street": "Via Quercia 8, Localita Pigozzo", "city": null, "postal_code": "37141", "state": null, "country": "Italy"}, "ranking": {"current_rank": 100, "total": 466}, "featured_image": null, "latitude": 45.535744, "longitude": 11.069711, "amenities": ["Free Wifi", "Free parking", "Restaurant", "Pets Allowed", "Bar/Lounge"], "providers": []}, {"id": 12292233, "name": "Bed and Breakfast Delle Rose", "link": "https://www.tripadvisor.com/Hotel_Review-g187871-d12292233-Reviews-Bed_and_Breakfast_Delle_Rose-Verona_Province_of_Verona_Veneto.html", "reviews": 10, "rating": 4, "price_range_usd": {"min": 78, "max": 100}, "phone": "+39 391 157 0461", "address": "Via del Risorgimento 27, 37126, Verona Italy", "detailed_address": {"street": "Via del Risorgimento 27", "city": null, "postal_code": "37126", "state": null, "country": "Italy"}, "ranking": {"current_rank": 119, "total": 344}, "featured_image": null, "latitude": 45.44519, "longitude": 10.98436, "amenities": ["Free Wifi", "Breakfast included"], "providers": []}, {"id": 10331748, "name": "Massimago Wine Suites", "link": "https://www.tripadvisor.com/Hotel_Review-g187871-d10331748-Reviews-Massimago_Wine_Suites-Verona_Province_of_Verona_Veneto.html", "reviews": 86, "rating": 4.5, "price_range_usd": {"min": 125, "max": 262}, "phone": "+39 327 576 6977", "address": "Stradone San Fermo 24, 37121, Verona Italy", "detailed_address": {"street": "Stradone San Fermo 24", "city": null, "postal_code": "37121", "state": null, "country": "Italy"}, "ranking": {"current_rank": 122, "total": 466}, "featured_image": null, "latitude": 45.43834, "longitude": 10.997675, "amenities": ["Free Wifi"], "providers": []}, {"id": 6627993, "name": "Al 19 B&B", "link": "https://www.tripadvisor.com/Hotel_Review-g187871-d6627993-Reviews-Al_19_B_B-Verona_Province_of_Verona_Veneto.html", "reviews": 117, "rating": 5, "price_range_usd": {"min": 107, "max": 203}, "phone": "+39 347 755 6434", "address": "Stradone San Fermo 19, 37121, Verona Italy", "detailed_address": {"street": "Stradone San Fermo 19", "city": null, "postal_code": "37121", "state": null, "country": "Italy"}, "ranking": {"current_rank": 27, "total": 466}, "featured_image": null, "latitude": 45.438274, "longitude": 10.998051, "amenities": ["Free Wifi", "Breakfast included"], "providers": []}, {"id": 4005253, "name": "Villa Baietta - Luxury B&B", "link": "https://www.tripadvisor.com/Hotel_Review-g187871-d4005253-Reviews-Villa_Baietta_Luxury_B_B-Verona_Province_of_Verona_Veneto.html", "reviews": 60, "rating": 4.5, "price_range_usd": {"min": 89, "max": 112}, "phone": "+39 346 845 5325", "address": "Via Mantovana 186, 37137, Verona Italy", "detailed_address": {"street": "Via Mantovana 186", "city": null, "postal_code": "37137", "state": null, "country": "Italy"}, "ranking": {"current_rank": 87, "total": 466}, "featured_image": null, "latitude": 45.402462, "longitude": 10.923267, "amenities": ["Free Wifi", "Free parking", "Breakfast included", "Room service"], "providers": []}, {"id": 2271723, "name": "La Rugolana", "link": "https://www.tripadvisor.com/Hotel_Review-g2291972-d2271723-Reviews-La_Rugolana-Montorio_Verona_Province_of_Verona_Veneto.html", "reviews": 19, "rating": 4.5, "price_range_usd": {"min": 112, "max": 130}, "phone": "+39 340 915 1084", "address": "Via Delle Rive 1, 37141 Montorio, Verona Italy", "detailed_address": {"street": "Via Delle Rive 1", "city": "Montorio", "postal_code": "37141", "state": null, "country": "Italy"}, "ranking": {"current_rank": 239, "total": 466}, "featured_image": null, "latitude": 45.474792, "longitude": 11.069275, "amenities": ["Free Wifi", "Free parking", "Pets Allowed"], "providers": []}, {"id": 2427819, "name": "B&B in Arena l'Opera", "link": "https://www.tripadvisor.com/Hotel_Review-g187871-d2427819-Reviews-B_B_in_Arena_l_Opera-Verona_Province_of_Verona_Veneto.html", "reviews": 47, "rating": 3, "price_range_usd": {"min": 73, "max": 85}, "phone": "+39 346 521 7754", "address": "Largo Carlo Caldera 11 Centro storico, 37122, Verona Italy", "detailed_address": {"street": "Largo Carlo Caldera 11, Centro storico", "city": null, "postal_code": "37122", "state": null, "country": "Italy"}, "ranking": {"current_rank": 396, "total": 466}, "featured_image": null, "latitude": 45.43457, "longitude": 10.98743, "amenities": ["Free Wifi", "Breakfast included", "Pets Allowed"], "providers": []}, {"id": 1102077, "name": "Hotel Albergo Trento", "link": "https://www.tripadvisor.com/Hotel_Review-g187871-d1102077-Reviews-Hotel_Albergo_Trento-Verona_Province_of_Verona_Veneto.html", "reviews": 229, "rating": 3.5, "price_range_usd": {"min": 137, "max": 251}, "phone": "+39 045 596444", "address": "Corso Porta Nuova 36, 37122, Verona Italy", "detailed_address": {"street": "Corso Porta Nuova 36", "city": null, "postal_code": "37122", "state": null, "country": "Italy"}, "ranking": {"current_rank": 53, "total": 87}, "featured_image": null, "latitude": 45.434303, "longitude": 10.9895, "amenities": ["Free Wifi", "Breakfast included", "Pets Allowed"], "providers": []}, {"id": 237424, "name": "Sanmicheli", "link": "https://www.tripadvisor.com/Hotel_Review-g187871-d237424-Reviews-Sanmicheli-Verona_Province_of_Verona_Veneto.html", "reviews": 100, "rating": 3.5, "price_range_usd": {"min": 103, "max": 161}, "phone": "+39 045 800 3749", "address": "Via della Valverde 2, 37122, Verona Italy", "detailed_address": {"street": "Via della Valverde 2", "city": null, "postal_code": "37122", "state": null, "country": "Italy"}, "ranking": {"current_rank": 59, "total": 87}, "featured_image": null, "latitude": 45.435917, "longitude": 10.989524, "amenities": ["Free Wifi", "Breakfast included", "Pets Allowed", "Bar/Lounge"], "providers": []}, {"id": 9596268, "name": "Veronetta House", "link": "https://www.tripadvisor.com/Hotel_Review-g187871-d9596268-Reviews-Veronetta_House-Verona_Province_of_Verona_Veneto.html", "reviews": 250, "rating": 4.5, "price_range_usd": {"min": 75, "max": 220}, "phone": "+39 366 822 7678", "address": "Via Scrimiari 46, 37129, Verona Italy", "detailed_address": {"street": "Via Scrimiari 46", "city": null, "postal_code": "37129", "state": null, "country": "Italy"}, "ranking": {"current_rank": 8, "total": 344}, "featured_image": null, "latitude": 45.441597, "longitude": 11.004136, "amenities": ["Free Wifi", "Breakfast included", "Pets Allowed"], "providers": []}, {"id": 17552352, "name": "Gabrielli Rooms & Apartments - Alloggio 2", "link": "https://www.tripadvisor.com/Hotel_Review-g187871-d17552352-Reviews-Gabrielli_Rooms_Apartments_Alloggio_2-Verona_Province_of_Verona_Veneto.html", "reviews": 4, "rating": 3, "price_range_usd": {"min": 44, "max": 90}, "phone": null, "address": "Circonvallazione Pietro Maroncelli 11, 37123, Verona Italy", "detailed_address": {"street": "Circonvallazione Pietro Maroncelli 11", "city": null, "postal_code": "37123", "state": null, "country": "Italy"}, "ranking": {"current_rank": 314, "total": 344}, "featured_image": null, "latitude": 45.43763, "longitude": 10.97899, "amenities": [], "providers": []}, {"id": 2204193, "name": "Residenza Borsari", "link": "https://www.tripadvisor.com/Hotel_Review-g187871-d2204193-Reviews-Residenza_Borsari-Verona_Province_of_Verona_Veneto.html", "reviews": 236, "rating": 4.5, "price_range_usd": {"min": 157, "max": 249}, "phone": "+39 337 461 497", "address": "Corso Porta Borsari 33, 37121, Verona Italy", "detailed_address": {"street": "Corso Porta Borsari 33", "city": null, "postal_code": "37121", "state": null, "country": "Italy"}, "ranking": {"current_rank": 30, "total": 466}, "featured_image": null, "latitude": 45.44256, "longitude": 10.994693, "amenities": ["Free Wifi", "Breakfast included"], "providers": []}, {"id": 1217187, "name": "Rigoletto", "link": "https://www.tripadvisor.com/Hotel_Review-g187871-d1217187-Reviews-Rigoletto-Verona_Province_of_Verona_Veneto.html", "reviews": 236, "rating": 3, "price_range_usd": {"min": 65, "max": 344}, "phone": "+39 340 223 9211", "address": "Via Amatore Sciesa 9, 37122, Verona Italy", "detailed_address": {"street": "Via Amatore Sciesa 9", "city": null, "postal_code": "37122", "state": null, "country": "Italy"}, "ranking": {"current_rank": 430, "total": 466}, "featured_image": null, "latitude": 45.436405, "longitude": 10.988837, "amenities": ["Free Wifi", "Pets Allowed"], "providers": []}, {"id": 13414954, "name": "Arsenale Suites", "link": "https://www.tripadvisor.com/Hotel_Review-g187871-d13414954-Reviews-Arsenale_Suites-Verona_Province_of_Verona_Veneto.html", "reviews": 56, "rating": 5, "price_range_usd": {"min": 100, "max": 208}, "phone": "+39 393 988 6979", "address": "Piazza Arsenale 6, 37126, Verona Italy", "detailed_address": {"street": "Piazza Arsenale 6", "city": null, "postal_code": "37126", "state": null, "country": "Italy"}, "ranking": {"current_rank": 38, "total": 344}, "featured_image": null, "latitude": 45.44225, "longitude": 10.987978, "amenities": ["Free Wifi", "Breakfast included", "Pets Allowed", "Bar/Lounge"], "providers": []}, {"id": 12946107, "name": "Pepita Lodge", "link": "https://www.tripadvisor.com/Hotel_Review-g187871-d12946107-Reviews-Pepita_Lodge-Verona_Province_of_Verona_Veneto.html", "reviews": 56, "rating": 4.5, "price_range_usd": {"min": 106, "max": 188}, "phone": "+39 045 800 1393", "address": "Corso Porta Nuova 103, 37122, Verona Italy", "detailed_address": {"street": "Corso Porta Nuova 103", "city": null, "postal_code": "37122", "state": null, "country": "Italy"}, "ranking": {"current_rank": 142, "total": 466}, "featured_image": null, "latitude": 45.433556, "longitude": 10.989529, "amenities": ["Free Wifi", "Airport transportation"], "providers": []}, {"id": 1208519, "name": "Anfiteatro Bed & Breakfast", "link": "https://www.tripadvisor.com/Hotel_Review-g187871-d1208519-Reviews-Anfiteatro_Bed_Breakfast-Verona_Province_of_Verona_Veneto.html", "reviews": 197, "rating": 5, "price_range_usd": {"min": 93, "max": 135}, "phone": "+39 347 248 8462", "address": "Via Alberto Mario 5, 37121, Verona Italy", "detailed_address": {"street": "Via Alberto Mario 5", "city": null, "postal_code": "37121", "state": null, "country": "Italy"}, "ranking": {"current_rank": 28, "total": 466}, "featured_image": null, "latitude": 45.440536, "longitude": 10.99455, "amenities": ["Free Wifi", "Breakfast included", "Airport transportation"], "providers": []}, {"id": 238851, "name": "Vista Verona", "link": "https://www.tripadvisor.com/Hotel_Review-g187871-d238851-Reviews-Vista_Verona-Verona_Province_of_Verona_Veneto.html", "reviews": 24, "rating": 4.5, "price_range_usd": {"min": 674, "max": 959}, "phone": "+39 045 1117 0880", "address": "Corticella Leoni 3, 37121, Verona Italy", "detailed_address": {"street": "Corticella Leoni 3", "city": null, "postal_code": "37121", "state": null, "country": "Italy"}, "ranking": {"current_rank": 55, "total": 87}, "featured_image": null, "latitude": 45.440727, "longitude": 10.999956, "amenities": ["Free Wifi", "Breakfast included", "Pool", "Heated pool", "Indoor pool"], "providers": []}, {"id": 10354576, "name": "Arena Luxury Rooms", "link": "https://www.tripadvisor.com/Hotel_Review-g187871-d10354576-Reviews-Arena_Luxury_Rooms-Verona_Province_of_Verona_Veneto.html", "reviews": 40, "rating": 4.5, "price_range_usd": {"min": 132, "max": 165}, "phone": "+39 347 585 8693", "address": "Piazza Mura Gallieno 2/2/A fronte Arena, 37121, Verona Italy", "detailed_address": {"street": "Piazza Mura Gallieno 2/2/A, fronte Arena", "city": null, "postal_code": "37121", "state": null, "country": "Italy"}, "ranking": {"current_rank": 177, "total": 466}, "featured_image": null, "latitude": 45.438927, "longitude": 10.995421, "amenities": ["Free Wifi", "Breakfast included", "Airport transportation"], "providers": []}, {"id": 3400648, "name": "Romeo Giulietta Rooms Apartments Turkish Bath", "link": "https://www.tripadvisor.com/Hotel_Review-g187871-d3400648-Reviews-Romeo_Giulietta_Rooms_Apartments_Turkish_Bath-Verona_Province_of_Verona_Veneto.html", "reviews": 90, "rating": 4.5, "price_range_usd": {"min": 87, "max": 175}, "phone": "+39 366 345 9655", "address": "Via San Giovanni in Valle 14/a, 37129, Verona Italy", "detailed_address": {"street": "Via San Giovanni in Valle 14/a", "city": null, "postal_code": "37129", "state": null, "country": "Italy"}, "ranking": {"current_rank": 39, "total": 344}, "featured_image": null, "latitude": 45.44585, "longitude": 11.00549, "amenities": ["Free Wifi", "Airport transportation"], "providers": []}, {"id": 3699850, "name": "B&B Casanova", "link": "https://www.tripadvisor.com/Hotel_Review-g187871-d3699850-Reviews-B_B_Casanova-Verona_Province_of_Verona_Veneto.html", "reviews": 153, "rating": 4.5, "price_range_usd": {"min": 75, "max": 101}, "phone": "+39 392 816 1313", "address": "Via del Pontiere 8, 37122, Verona Italy", "detailed_address": {"street": "Via del Pontiere 8", "city": null, "postal_code": "37122", "state": null, "country": "Italy"}, "ranking": {"current_rank": 79, "total": 466}, "featured_image": null, "latitude": 45.435116, "longitude": 10.996656, "amenities": ["Breakfast included", "Airport transportation"], "providers": []}, {"id": 19901709, "name": "Verona Enjoy", "link": "https://www.tripadvisor.com/Hotel_Review-g187871-d19901709-Reviews-Verona_Enjoy-Verona_Province_of_Verona_Veneto.html", "reviews": 20, "rating": 4.5, "price_range_usd": {"min": 95, "max": 138}, "phone": "+39 045 472 0459", "address": "Via Giovanni della Casa 12, 37122, Verona Italy", "detailed_address": {"street": "Via Giovanni della Casa 12", "city": null, "postal_code": "37122", "state": null, "country": "Italy"}, "ranking": {"current_rank": 76, "total": 344}, "featured_image": null, "latitude": 45.43444, "longitude": 10.98455, "amenities": ["Free Wifi", "Pets Allowed"], "providers": []}]}, "error": null}